ts_iso,elapsed_s,state,battery_percent,height_cm,flow_vx_cms,flow_vy_cms,speed_cms,angle_roll_deg,angle_pitch_deg,angle_yaw_deg,rel_x,rel_y,rel_z,accel_x,accel_y,accel_z,colors,front_range,temp_c
2025-10-30T12:40:43-04:00,0.0,ModeFlight.Ready,74,0.0,200.0,-68400.0,68400.292,0,0,0,33.811,-76.352,34.078,0,0,98,"['black', 'black']",999.9,0
2025-10-30T12:40:44-04:00,0.516,ModeFlight.Ready,74,0.0,200.0,-68400.0,68400.292,0,0,123,33.81,-76.352,33.862,0,0,97,"['black', 'black']",999.9,37.5
2025-10-30T12:40:44-04:00,1.016,ModeFlight.Ready,74,0.0,200.0,-68400.0,68400.292,0,0,123,33.811,-76.353,33.682,0,0,98,"['black', 'black']",999.9,37.5
2025-10-30T12:40:45-04:00,1.5,ModeFlight.Ready,74,0.0,200.0,-68400.0,68400.292,0,0,123,33.811,-76.352,33.682,0,0,98,"['black', 'black']",999.9,37.52
2025-10-30T12:40:45-04:00,2.0,ModeFlight.Ready,74,0.0,200.0,-68400.0,68400.292,0,0,123,33.812,-76.351,33.425,0,0,98,"['black', 'black']",999.9,37.53
2025-10-30T12:40:46-04:00,2.5,ModeFlight.Ready,74,0.0,200.0,-68400.0,68400.292,0,0,123,33.81,-76.353,33.385,0,0,98,"['black', 'black']",999.9,37.53
2025-10-30T12:40:46-04:00,3.0,ModeFlight.Ready,74,0.0,200.0,-68400.0,68400.292,0,0,123,33.809,-76.352,33.384,0,0,98,"['black', 'black']",999.9,37.53
2025-10-30T12:40:47-04:00,3.516,ModeFlight.Ready,74,0.0,200.0,-68400.0,68400.292,0,0,123,33.809,-76.35,33.362,0,0,98,"['black', 'black']",999.9,37.57
2025-10-30T12:40:47-04:00,4.0,ModeFlight.Ready,74,0.0,200.0,-68400.0,68400.292,0,0,123,33.809,-76.349,33.428,0,0,99,"['black', 'black']",999.9,37.58
2025-10-30T12:40:48-04:00,4.5,ModeFlight.Ready,74,0.0,200.0,-68400.0,68400.292,0,0,123,33.809,-76.348,33.428,0,0,98,"['black', 'black']",999.9,37.58
2025-10-30T12:40:48-04:00,5.0,ModeFlight.Ready,74,0.0,200.0,-68400.0,68400.292,0,0,123,33.809,-76.348,33.428,0,0,98,"['black', 'black']",999.9,37.58
2025-10-30T12:40:49-04:00,5.5,ModeFlight.Ready,74,0.0,200.0,-68400.0,68400.292,0,0,123,33.809,-76.348,33.428,0,0,98,"['black', 'black']",999.9,37.58
2025-10-30T12:40:49-04:00,6.0,ModeFlight.Ready,74,0.0,200.0,-68400.0,68400.292,0,0,123,33.809,-76.353,33.94,0,0,98,"['black', 'black']",999.9,37.58
2025-10-30T12:40:50-04:00,6.5,ModeFlight.Ready,74,0.0,200.0,-68400.0,68400.292,0,0,122,33.809,-76.353,33.94,0,0,97,"['black', 'black']",999.9,37.58
2025-10-30T12:40:50-04:00,7.0,ModeFlight.Ready,74,0.0,200.0,-68400.0,68400.292,0,0,122,33.809,-76.353,33.94,0,0,98,"['black', 'black']",999.9,37.58
2025-10-30T12:40:51-04:00,7.5,ModeFlight.Ready,74,0.0,200.0,-68400.0,68400.292,0,0,122,33.809,-76.353,33.94,0,0,98,"['black', 'black']",999.9,37.58
2025-10-30T12:40:51-04:00,8.0,ModeFlight.Ready,74,0.0,200.0,-68400.0,68400.292,0,0,122,33.809,-76.353,33.94,0,0,98,"['black', 'black']",999.9,37.58
2025-10-30T12:40:52-04:00,8.5,ModeFlight.Ready,74,0.0,200.0,-68400.0,68400.292,0,0,122,33.809,-76.353,33.94,0,0,98,"['black', 'black']",999.9,37.58
2025-10-30T12:40:52-04:00,9.0,ModeFlight.Ready,74,0.0,200.0,-68400.0,68400.292,0,0,122,33.81,-76.349,34.26,0,0,98,"['black', 'black']",999.9,37.58
2025-10-30T12:40:53-04:00,9.5,ModeFlight.Ready,74,0.0,200.0,-68400.0,68400.292,0,0,122,33.81,-76.35,34.26,0,0,97,"['black', 'black']",999.9,37.58
2025-10-30T12:40:53-04:00,10.0,ModeFlight.Ready,74,0.0,200.0,-68400.0,68400.292,0,0,122,33.81,-76.351,34.268,0,0,98,"['black', 'black']",999.9,37.58
2025-10-30T12:40:54-04:00,10.5,ModeFlight.Ready,75,0.0,200.0,-68400.0,68400.292,0,0,122,33.809,-76.353,34.274,0,0,98,"['black', 'black']",999.9,37.58
2025-10-30T12:40:54-04:00,11.0,ModeFlight.Ready,75,0.0,200.0,-68400.0,68400.292,0,0,122,33.807,-76.352,34.284,0,0,98,"['black', 'black']",999.9,37.73
2025-10-30T12:40:55-04:00,11.5,ModeFlight.Ready,75,0.0,200.0,-68400.0,68400.292,0,0,122,33.807,-76.351,34.269,0,0,98,"['black', 'black']",999.9,37.73
2025-10-30T12:40:55-04:00,12.016,ModeFlight.Ready,75,0.0,200.0,-68400.0,68400.292,0,0,122,33.807,-76.351,34.269,0,0,97,"['black', 'black']",999.9,37.73
2025-10-30T12:40:56-04:00,12.5,ModeFlight.Ready,75,0.0,200.0,-68400.0,68400.292,0,0,122,33.807,-76.351,34.269,0,0,98,"['black', 'black']",999.9,37.73
2025-10-30T12:40:56-04:00,13.0,ModeFlight.Ready,75,0.0,200.0,-68400.0,68400.292,0,0,122,33.807,-76.351,34.224,0,0,98,"['black', 'black']",999.9,37.73
2025-10-30T12:40:57-04:00,13.5,ModeFlight.Ready,75,0.0,200.0,-68400.0,68400.292,0,0,122,33.803,-76.348,34.21,0,0,98,"['black', 'black']",999.9,37.73
2025-10-30T12:40:57-04:00,14.0,ModeFlight.Ready,75,0.0,200.0,-68400.0,68400.292,0,0,122,33.811,-76.353,34.21,0,0,98,"['black', 'black']",999.9,37.73
2025-10-30T12:40:58-04:00,14.5,ModeFlight.Ready,75,0.0,200.0,-68400.0,68400.292,0,0,122,33.811,-76.353,34.21,0,0,98,"['black', 'black']",999.9,37.73
2025-10-30T12:40:58-04:00,15.0,ModeFlight.Ready,75,0.0,200.0,-68400.0,68400.292,0,0,122,33.811,-76.347,34.162,0,0,98,"['black', 'black']",999.9,37.73
2025-10-30T12:40:59-04:00,15.5,ModeFlight.Ready,75,0.0,200.0,-68400.0,68400.292,0,0,122,33.809,-76.351,34.162,-1,0,97,"['black', 'black']",999.9,37.73
2025-10-30T12:40:59-04:00,16.0,ModeFlight.Ready,75,0.0,200.0,-68400.0,68400.292,0,0,122,33.809,-76.351,34.141,0,0,97,"['black', 'black']",999.9,37.73
2025-10-30T12:41:00-04:00,16.5,ModeFlight.Ready,75,0.0,200.0,-68400.0,68400.292,0,0,122,33.807,-76.35,34.125,0,0,97,"['black', 'black']",999.9,37.73
2025-10-30T12:41:00-04:00,17.0,ModeFlight.Ready,75,0.0,200.0,-68400.0,68400.292,0,0,122,33.807,-76.35,34.125,0,0,98,"['black', 'black']",999.9,37.73
2025-10-30T12:41:01-04:00,17.5,ModeFlight.Ready,75,0.0,200.0,-68400.0,68400.292,0,0,122,33.81,-76.354,34.132,0,0,98,"['black', 'black']",999.9,37.84
2025-10-30T12:41:01-04:00,18.0,ModeFlight.Ready,75,0.0,200.0,-68400.0,68400.292,0,0,122,33.81,-76.354,34.132,0,0,98,"['black', 'black']",999.9,37.84
2025-10-30T12:41:02-04:00,18.5,ModeFlight.Ready,75,0.0,200.0,-68400.0,68400.292,0,0,122,33.81,-76.354,34.132,0,0,98,"['black', 'black']",999.9,37.84
2025-10-30T12:41:02-04:00,19.0,ModeFlight.Ready,75,0.0,200.0,-68400.0,68400.292,0,0,122,33.81,-76.354,34.168,2,0,98,"['black', 'black']",999.9,37.85
2025-10-30T12:41:03-04:00,19.516,ModeFlight.Ready,75,0.0,200.0,-68400.0,68400.292,0,0,122,33.811,-76.349,34.171,0,0,97,"['black', 'black']",999.9,37.85
2025-10-30T12:41:03-04:00,20.0,ModeFlight.Ready,75,0.0,200.0,-68400.0,68400.292,0,0,122,33.808,-76.348,34.171,0,0,98,"['black', 'black']",999.9,37.85
2025-10-30T12:41:04-04:00,20.5,ModeFlight.Ready,75,0.0,200.0,-68400.0,68400.292,0,0,122,33.808,-76.348,34.171,0,0,97,"['black', 'black']",999.9,37.85
2025-10-30T12:41:04-04:00,21.0,ModeFlight.Ready,75,0.0,200.0,-68400.0,68400.292,0,0,122,33.808,-76.348,34.171,0,0,97,"['black', 'black']",999.9,37.91
2025-10-30T12:41:05-04:00,21.5,ModeFlight.Ready,75,0.0,200.0,-68400.0,68400.292,0,0,122,33.808,-76.353,34.146,0,0,97,"['black', 'black']",999.9,37.91
2025-10-30T12:41:05-04:00,22.0,ModeFlight.Ready,75,0.0,200.0,-68400.0,68400.292,0,0,122,33.809,-76.353,34.146,0,0,98,"['black', 'black']",999.9,37.91
2025-10-30T12:41:06-04:00,22.5,ModeFlight.Ready,75,0.0,200.0,-68400.0,68400.292,0,0,122,33.809,-76.353,34.146,0,0,98,"['black', 'black']",999.9,37.93
2025-10-30T12:41:06-04:00,23.0,ModeFlight.Ready,75,0.0,200.0,-68400.0,68400.292,0,0,122,33.806,-76.352,34.169,0,0,98,"['black', 'black']",999.9,37.93
2025-10-30T12:41:07-04:00,23.5,ModeFlight.Ready,75,0.0,200.0,-68400.0,68400.292,0,0,122,33.807,-76.351,34.185,0,0,97,"['black', 'black']",999.9,37.96
2025-10-30T12:41:07-04:00,24.0,ModeFlight.Ready,75,0.0,200.0,-68400.0,68400.292,0,0,122,33.808,-76.35,34.201,0,0,97,"['black', 'black']",999.9,37.96
2025-10-30T12:41:08-04:00,24.5,ModeFlight.Ready,75,0.0,200.0,-68400.0,68400.292,0,0,122,33.808,-76.351,34.201,0,0,97,"['black', 'black']",999.9,37.95
2025-10-30T12:41:08-04:00,25.0,ModeFlight.Ready,75,0.0,200.0,-68400.0,68400.292,0,0,122,33.81,-76.351,34.202,0,0,97,"['black', 'black']",999.9,37.95
2025-10-30T12:41:09-04:00,25.5,ModeFlight.Ready,75,0.0,200.0,-68400.0,68400.292,0,0,122,33.81,-76.35,34.205,0,0,97,"['black', 'black']",999.9,37.98
2025-10-30T12:41:09-04:00,26.0,ModeFlight.Ready,75,0.0,200.0,-68400.0,68400.292,0,0,122,33.808,-76.353,34.2,0,0,97,"['black', 'black']",999.9,37.98
2025-10-30T12:41:10-04:00,26.5,ModeFlight.Ready,75,0.0,200.0,-68400.0,68400.292,0,0,122,33.81,-76.355,34.2,-1,0,97,"['black', 'black']",999.9,37.98
2025-10-30T12:41:10-04:00,27.0,ModeFlight.Ready,75,0.0,200.0,-68400.0,68400.292,0,0,122,33.809,-76.353,34.196,0,0,98,"['black', 'black']",999.9,37.98
2025-10-30T12:41:11-04:00,27.516,ModeFlight.Ready,75,0.0,200.0,-68400.0,68400.292,0,0,122,33.807,-76.35,34.203,0,0,98,"['black', 'black']",999.9,37.98
2025-10-30T12:41:11-04:00,28.016,ModeFlight.Ready,75,0.0,200.0,-68400.0,68400.292,0,0,122,33.808,-76.351,34.204,0,0,98,"['black', 'black']",999.9,37.98
2025-10-30T12:41:12-04:00,28.5,ModeFlight.Ready,75,0.0,200.0,-68400.0,68400.292,0,0,122,33.808,-76.35,34.155,0,0,98,"['black', 'black']",999.9,38.04
2025-10-30T12:41:12-04:00,29.0,ModeFlight.Ready,75,0.0,200.0,-68400.0,68400.292,0,0,122,33.809,-76.351,34.14,0,0,98,"['black', 'black']",999.9,38.04
2025-10-30T12:41:13-04:00,29.5,ModeFlight.Ready,75,0.0,200.0,-68400.0,68400.292,0,0,122,33.809,-76.351,34.143,0,0,97,"['black', 'black']",999.9,38.04
2025-10-30T12:41:13-04:00,30.0,ModeFlight.Ready,75,0.0,200.0,-68400.0,68400.292,0,0,122,33.809,-76.35,34.122,0,0,97,"['black', 'black']",999.9,38.06
2025-10-30T12:41:14-04:00,30.5,ModeFlight.Ready,75,0.0,200.0,-68400.0,68400.292,0,0,122,33.808,-76.35,34.096,0,0,97,"['black', 'black']",999.9,38.06
2025-10-30T12:41:14-04:00,31.0,ModeFlight.Ready,75,0.0,200.0,-68400.0,68400.292,0,0,122,33.807,-76.35,34.101,0,0,97,"['black', 'black']",999.9,38.09
2025-10-30T12:41:15-04:00,31.5,ModeFlight.Ready,75,0.0,200.0,-68400.0,68400.292,0,0,122,33.808,-76.35,34.101,0,0,98,"['black', 'black']",999.9,38.09
2025-10-30T12:41:15-04:00,32.016,ModeFlight.Ready,75,0.0,200.0,-68400.0,68400.292,0,0,122,33.807,-76.35,34.136,0,0,98,"['black', 'black']",999.9,38.09
2025-10-30T12:41:16-04:00,32.5,ModeFlight.Ready,75,0.0,200.0,-68400.0,68400.292,0,0,122,33.809,-76.351,34.148,0,0,98,"['black', 'black']",999.9,38.12
2025-10-30T12:41:16-04:00,33.0,ModeFlight.Ready,75,0.0,200.0,-68400.0,68400.292,0,0,122,33.809,-76.351,34.148,0,0,98,"['black', 'black']",999.9,38.12
2025-10-30T12:41:17-04:00,33.5,ModeFlight.Ready,75,0.0,200.0,-68400.0,68400.292,0,0,122,33.81,-76.351,34.118,0,0,98,"['black', 'black']",999.9,38.13
2025-10-30T12:41:17-04:00,34.0,ModeFlight.Ready,75,0.0,200.0,-68400.0,68400.292,0,0,122,33.809,-76.354,34.107,0,0,97,"['black', 'black']",999.9,38.13
2025-10-30T12:41:18-04:00,34.5,ModeFlight.Ready,75,0.0,200.0,-68400.0,68400.292,0,0,122,33.809,-76.354,34.107,0,-1,97,"['black', 'black']",999.9,38.13
2025-10-30T12:41:18-04:00,35.0,ModeFlight.Ready,75,0.0,200.0,-68400.0,68400.292,0,0,122,33.809,-76.354,34.131,0,0,97,"['black', 'black']",999.9,38.14
2025-10-30T12:41:19-04:00,35.5,ModeFlight.Ready,75,0.0,200.0,-68400.0,68400.292,0,0,122,33.808,-76.352,34.158,0,0,98,"['black', 'black']",999.9,38.14
2025-10-30T12:41:19-04:00,36.0,ModeFlight.Ready,75,0.0,200.0,-68400.0,68400.292,0,0,122,33.808,-76.352,34.197,0,0,97,"['black', 'black']",999.9,38.14
2025-10-30T12:41:20-04:00,36.5,ModeFlight.Ready,75,0.0,200.0,-68400.0,68400.292,0,0,122,33.808,-76.353,34.209,0,0,98,"['black', 'black']",999.9,38.14
2025-10-30T12:41:20-04:00,37.0,ModeFlight.Ready,75,0.0,200.0,-68400.0,68400.292,0,0,121,33.808,-76.353,34.231,0,0,98,"['black', 'black']",999.9,38.14
2025-10-30T12:41:21-04:00,37.5,ModeFlight.Ready,75,0.0,200.0,-68400.0,68400.292,0,0,121,33.811,-76.35,34.243,0,0,98,"['black', 'black']",999.9,38.14
2025-10-30T12:41:21-04:00,38.0,ModeFlight.Ready,75,0.0,200.0,-68400.0,68400.292,0,0,121,33.808,-76.351,34.224,0,0,98,"['black', 'black']",999.9,38.14
2025-10-30T12:41:22-04:00,38.5,ModeFlight.Ready,75,0.0,200.0,-68400.0,68400.292,0,0,121,33.81,-76.352,34.213,0,0,97,"['black', 'black']",999.9,38.14
2025-10-30T12:41:22-04:00,39.0,ModeFlight.Ready,75,0.0,200.0,-68400.0,68400.292,0,0,121,33.809,-76.351,34.195,0,0,98,"['black', 'black']",999.9,38.14
2025-10-30T12:41:23-04:00,39.5,ModeFlight.Ready,75,0.0,200.0,-68400.0,68400.292,0,0,121,33.809,-76.351,34.181,0,0,98,"['black', 'black']",999.9,38.25
2025-10-30T12:41:23-04:00,40.0,ModeFlight.Ready,75,0.0,200.0,-68400.0,68400.292,0,0,121,33.808,-76.352,34.177,0,0,98,"['black', 'black']",999.9,38.25
2025-10-30T12:41:24-04:00,40.5,ModeFlight.Ready,75,0.0,200.0,-68400.0,68400.292,0,0,121,33.807,-76.353,34.177,0,0,98,"['black', 'black']",999.9,38.26
2025-10-30T12:41:24-04:00,41.0,ModeFlight.Ready,75,0.0,200.0,-68400.0,68400.292,0,0,121,33.807,-76.353,34.177,0,0,98,"['black', 'black']",999.9,38.26
2025-10-30T12:41:25-04:00,41.5,ModeFlight.Ready,75,0.0,200.0,-68400.0,68400.292,0,0,121,33.807,-76.353,34.152,0,0,97,"['black', 'black']",999.9,38.26
2025-10-30T12:41:25-04:00,42.0,ModeFlight.Ready,75,0.0,200.0,-68400.0,68400.292,0,0,121,33.813,-76.359,34.144,0,0,97,"['black', 'black']",999.9,38.26
2025-10-30T12:41:26-04:00,42.5,ModeFlight.Ready,75,0.0,200.0,-68400.0,68400.292,0,0,121,33.811,-76.349,34.158,0,0,97,"['black', 'black']",999.9,38.3
2025-10-30T12:41:26-04:00,43.0,ModeFlight.Ready,75,0.0,200.0,-68400.0,68400.292,0,0,121,33.807,-76.354,34.176,0,0,98,"['black', 'black']",999.9,38.3
2025-10-30T12:41:27-04:00,43.5,ModeFlight.Ready,75,0.0,200.0,-68400.0,68400.292,0,0,121,33.811,-76.353,34.176,0,0,98,"['black', 'black']",999.9,38.3
2025-10-30T12:41:27-04:00,44.0,ModeFlight.Ready,75,0.0,200.0,-68400.0,68400.292,0,0,121,33.811,-76.355,34.202,0,0,98,"['black', 'black']",999.9,38.32
2025-10-30T12:41:28-04:00,44.5,ModeFlight.Ready,75,0.0,200.0,-68400.0,68400.292,0,0,121,33.81,-76.352,34.184,0,0,97,"['black', 'black']",999.9,38.33
2025-10-30T12:41:28-04:00,45.0,ModeFlight.Ready,75,0.0,200.0,-68400.0,68400.292,0,0,121,33.81,-76.354,34.14,0,0,97,"['black', 'black']",999.9,38.34
2025-10-30T12:41:29-04:00,45.5,ModeFlight.Ready,75,0.0,200.0,-68400.0,68400.292,0,0,121,33.811,-76.35,34.14,0,0,97,"['black', 'black']",999.9,38.36
2025-10-30T12:41:29-04:00,46.0,ModeFlight.Ready,75,0.0,200.0,-68400.0,68400.292,0,0,121,33.811,-76.35,34.14,0,0,89,"['black', 'black']",999.9,38.36
2025-10-30T12:41:30-04:00,46.5,ModeFlight.Ready,75,0.0,200.0,-68400.0,68400.292,0,0,121,33.809,-76.351,34.055,0,-1,97,"['black', 'black']",999.9,38.36
2025-10-30T12:41:30-04:00,47.0,ModeFlight.Ready,75,0.0,200.0,-68400.0,68400.292,0,0,121,33.808,-76.351,33.97,0,0,97,"['black', 'black']",999.9,38.38
2025-10-30T12:41:31-04:00,47.5,ModeFlight.Ready,75,0.0,200.0,-68400.0,68400.292,0,0,121,33.807,-76.351,33.926,0,0,97,"['black', 'black']",999.9,38.39
2025-10-30T12:41:31-04:00,48.0,ModeFlight.Ready,75,0.0,200.0,-68400.0,68400.292,0,0,121,33.812,-76.35,33.922,0,0,98,"['black', 'black']",999.9,38.41
2025-10-30T12:41:32-04:00,48.5,ModeFlight.Ready,75,0.0,200.0,-68400.0,68400.292,0,0,121,33.809,-76.352,33.962,0,0,98,"['black', 'black']",999.9,38.41
2025-10-30T12:41:32-04:00,49.016,ModeFlight.Ready,75,0.0,200.0,-68400.0,68400.292,0,0,121,33.807,-76.349,34.025,0,0,98,"['black', 'black']",999.9,38.43
2025-10-30T12:41:33-04:00,49.5,ModeFlight.Ready,75,0.0,200.0,-68400.0,68400.292,0,0,121,33.807,-76.353,34.111,0,0,98,"['black', 'black']",999.9,38.43
2025-10-30T12:41:33-04:00,50.0,ModeFlight.Ready,75,0.0,200.0,-68400.0,68400.292,0,0,121,33.81,-76.352,34.167,0,0,98,"['black', 'black']",999.9,38.43
2025-10-30T12:41:34-04:00,50.5,ModeFlight.Ready,75,0.0,200.0,-68400.0,68400.292,0,0,121,33.809,-76.351,34.167,0,0,98,"['black', 'black']",999.9,38.45
2025-10-30T12:41:34-04:00,51.016,ModeFlight.Ready,75,0.0,200.0,-68400.0,68400.292,0,0,121,33.808,-76.352,34.247,0,0,98,"['black', 'black']",999.9,38.45
2025-10-30T12:41:35-04:00,51.5,ModeFlight.Ready,75,0.0,200.0,-68400.0,68400.292,0,0,121,33.808,-76.354,34.266,-2,0,98,"['black', 'black']",999.9,38.45
2025-10-30T12:41:35-04:00,52.0,ModeFlight.Ready,75,0.0,200.0,-68400.0,68400.292,0,0,121,33.81,-76.353,34.266,1,-1,98,"['black', 'black']",999.9,38.45
2025-10-30T12:41:36-04:00,52.5,ModeFlight.Ready,75,0.0,200.0,-68400.0,68400.292,0,0,121,33.809,-76.353,34.287,0,0,98,"['black', 'black']",999.9,38.5
2025-10-30T12:41:36-04:00,53.0,ModeFlight.Ready,75,0.0,200.0,-68400.0,68400.292,0,0,121,33.807,-76.352,34.297,0,0,98,"['black', 'black']",999.9,38.5
2025-10-30T12:41:37-04:00,53.516,ModeFlight.Ready,75,0.0,200.0,-68400.0,68400.292,0,0,121,33.808,-76.352,34.287,0,0,98,"['black', 'black']",999.9,38.5
2025-10-30T12:41:37-04:00,54.0,ModeFlight.Ready,75,0.0,200.0,-68400.0,68400.292,0,0,121,33.81,-76.351,34.289,0,0,98,"['black', 'black']",999.9,38.52
2025-10-30T12:41:38-04:00,54.5,ModeFlight.Ready,75,0.0,200.0,-68400.0,68400.292,0,0,121,33.811,-76.35,34.271,0,0,97,"['black', 'black']",999.9,38.52
2025-10-30T12:41:38-04:00,55.0,ModeFlight.Ready,75,0.0,200.0,-68400.0,68400.292,0,0,121,33.81,-76.351,34.274,0,0,97,"['black', 'black']",999.9,38.52
2025-10-30T12:41:39-04:00,55.5,ModeFlight.Ready,75,0.0,200.0,-68400.0,68400.292,0,0,121,33.808,-76.35,34.239,0,0,97,"['black', 'black']",999.9,38.52
2025-10-30T12:41:39-04:00,56.0,ModeFlight.Ready,75,0.0,200.0,-68400.0,68400.292,0,0,121,33.808,-76.35,34.197,0,0,97,"['black', 'black']",999.9,38.57
2025-10-30T12:41:40-04:00,56.5,ModeFlight.Ready,75,0.0,200.0,-68400.0,68400.292,0,0,121,33.809,-76.352,34.179,0,0,97,"['black', 'black']",999.9,38.57
2025-10-30T12:41:40-04:00,57.0,ModeFlight.Ready,75,0.0,200.0,-68400.0,68400.292,0,0,121,33.809,-76.354,34.169,0,0,97,"['black', 'black']",999.9,38.58
2025-10-30T12:41:41-04:00,57.5,ModeFlight.Ready,75,0.0,200.0,-68400.0,68400.292,0,0,121,33.811,-76.355,34.169,0,0,97,"['black', 'black']",999.9,38.58
2025-10-30T12:41:41-04:00,58.016,ModeFlight.Ready,75,0.0,200.0,-68400.0,68400.292,0,0,121,33.811,-76.355,34.169,0,0,98,"['black', 'black']",999.9,38.58
2025-10-30T12:41:42-04:00,58.516,ModeFlight.Ready,75,0.0,200.0,-68400.0,68400.292,0,0,121,33.811,-76.352,33.981,0,0,98,"['black', 'black']",999.9,38.58
2025-10-30T12:41:42-04:00,59.0,ModeFlight.Ready,75,0.0,200.0,-68400.0,68400.292,0,0,121,33.809,-76.352,33.981,1,0,97,"['black', 'black']",999.9,38.62
2025-10-30T12:41:43-04:00,59.5,ModeFlight.Ready,75,0.0,200.0,-68400.0,68400.292,0,0,121,33.809,-76.35,33.749,1,0,97,"['black', 'black']",999.9,38.62
2025-10-30T12:41:43-04:00,60.0,ModeFlight.Ready,75,0.0,200.0,-68400.0,68400.292,0,0,121,33.809,-76.355,33.751,0,0,97,"['black', 'black']",999.9,38.62
2025-10-30T12:41:44-04:00,60.5,ModeFlight.Ready,75,0.0,200.0,-68400.0,68400.292,0,0,121,33.809,-76.355,33.751,0,0,97,"['black', 'black']",999.9,38.62
2025-10-30T12:41:44-04:00,61.0,ModeFlight.Ready,75,0.0,200.0,-68400.0,68400.292,0,0,121,33.809,-76.353,33.906,0,0,97,"['black', 'black']",999.9,38.62
2025-10-30T12:41:45-04:00,61.5,ModeFlight.Ready,75,0.0,200.0,-68400.0,68400.292,0,0,121,33.809,-76.351,33.993,0,0,97,"['black', 'black']",999.9,38.65
2025-10-30T12:41:45-04:00,62.0,ModeFlight.Ready,75,0.0,200.0,-68400.0,68400.292,0,0,121,33.807,-76.351,34.093,0,0,98,"['black', 'black']",999.9,38.65
2025-10-30T12:41:46-04:00,62.5,ModeFlight.Ready,75,0.0,200.0,-68400.0,68400.292,0,0,121,33.807,-76.35,34.203,0,0,98,"['black', 'black']",999.9,38.65
2025-10-30T12:41:46-04:00,63.0,ModeFlight.Ready,75,0.0,200.0,-68400.0,68400.292,0,0,121,33.811,-76.351,34.207,0,0,98,"['black', 'black']",999.9,38.65
2025-10-30T12:41:47-04:00,63.5,ModeFlight.Ready,75,0.0,200.0,-68400.0,68400.292,0,0,121,33.811,-76.351,34.207,-1,0,97,"['black', 'black']",999.9,38.65
2025-10-30T12:41:47-04:00,64.0,ModeFlight.Ready,75,0.0,200.0,-68400.0,68400.292,0,0,121,33.81,-76.35,34.455,0,0,98,"['black', 'black']",999.9,38.65
2025-10-30T12:41:48-04:00,64.5,ModeFlight.Ready,75,0.0,200.0,-68400.0,68400.292,0,0,120,33.805,-76.349,34.649,0,0,98,"['black', 'black']",999.9,38.65
2025-10-30T12:41:48-04:00,65.0,ModeFlight.Ready,75,0.0,200.0,-68400.0,68400.292,0,0,120,33.805,-76.356,34.796,0,0,98,"['black', 'black']",999.9,38.65
2025-10-30T12:41:49-04:00,65.5,ModeFlight.Ready,75,0.0,200.0,-68400.0,68400.292,0,0,120,33.813,-76.357,34.796,0,0,98,"['black', 'black']",999.9,38.65
2025-10-30T12:41:49-04:00,66.0,ModeFlight.Ready,75,0.0,200.0,-68400.0,68400.292,0,0,120,33.81,-76.354,34.784,1,0,98,"['black', 'black']",999.9,38.65
2025-10-30T12:41:50-04:00,66.5,ModeFlight.Ready,75,0.0,200.0,-68400.0,68400.292,0,0,120,33.81,-76.354,34.681,0,0,98,"['black', 'black']",999.9,38.65
2025-10-30T12:41:50-04:00,67.0,ModeFlight.Ready,75,0.0,200.0,-68400.0,68400.292,0,0,120,33.81,-76.354,34.681,0,0,98,"['black', 'black']",999.9,38.65
2025-10-30T12:41:51-04:00,67.516,ModeFlight.Ready,75,0.0,200.0,-68400.0,68400.292,0,0,120,33.81,-76.354,34.681,0,0,98,"['black', 'black']",999.9,38.76
2025-10-30T12:41:51-04:00,68.0,ModeFlight.Ready,75,0.0,200.0,-68400.0,68400.292,0,0,120,33.811,-76.35,34.293,0,0,98,"['black', 'black']",999.9,38.76
2025-10-30T12:41:52-04:00,68.5,ModeFlight.Ready,76,0.0,200.0,-68400.0,68400.292,0,0,120,33.804,-76.345,34.148,0,0,98,"['black', 'black']",999.9,38.76
2025-10-30T12:41:52-04:00,69.0,ModeFlight.Ready,76,0.0,200.0,-68400.0,68400.292,0,0,120,33.804,-76.35,34.065,0,0,98,"['black', 'black']",999.9,38.76
2025-10-30T12:41:53-04:00,69.5,ModeFlight.Ready,76,0.0,200.0,-68400.0,68400.292,0,0,120,33.809,-76.35,34.065,0,0,98,"['black', 'black']",999.9,38.76
2025-10-30T12:41:53-04:00,70.0,ModeFlight.Ready,76,0.0,200.0,-68400.0,68400.292,0,0,120,33.808,-76.351,33.947,0,0,97,"['black', 'black']",999.9,38.76
2025-10-30T12:41:54-04:00,70.5,ModeFlight.Ready,76,0.0,200.0,-68400.0,68400.292,0,0,120,33.81,-76.352,33.911,0,0,98,"['black', 'black']",999.9,38.76
2025-10-30T12:41:54-04:00,71.016,ModeFlight.Ready,76,0.0,200.0,-68400.0,68400.292,0,0,120,33.808,-76.351,33.912,0,0,98,"['black', 'black']",999.9,38.76
2025-10-30T12:41:55-04:00,71.5,ModeFlight.Ready,76,0.0,200.0,-68400.0,68400.292,0,0,120,33.812,-76.354,34.229,0,0,98,"['black', 'black']",999.9,38.76
2025-10-30T12:41:55-04:00,72.0,ModeFlight.Ready,76,0.0,200.0,-68400.0,68400.292,0,0,120,33.812,-76.354,34.229,1,0,98,"['black', 'black']",999.9,38.84
2025-10-30T12:41:56-04:00,72.516,ModeFlight.Ready,76,0.0,200.0,-68400.0,68400.292,0,0,120,33.812,-76.354,36.351,0,0,98,"['black', 'black']",999.9,38.85
2025-10-30T12:41:56-04:00,73.0,ModeFlight.Ready,76,0.0,200.0,-68400.0,68400.292,0,0,120,33.808,-76.351,36.351,0,0,97,"['black', 'black']",999.9,38.85
2025-10-30T12:41:57-04:00,73.5,ModeFlight.Ready,75,0.0,200.0,-68400.0,68400.292,0,0,120,33.808,-76.351,36.351,0,0,97,"['black', 'black']",999.9,38.85
2025-10-30T12:41:57-04:00,74.0,ModeFlight.Ready,75,0.0,200.0,-68400.0,68400.292,0,0,120,33.808,-76.352,37.803,0,0,98,"['black', 'black']",999.9,38.85
2025-10-30T12:41:58-04:00,74.516,ModeFlight.Ready,75,0.0,200.0,-68400.0,68400.292,0,0,120,33.808,-76.352,37.803,0,0,97,"['black', 'black']",999.9,38.91
2025-10-30T12:41:58-04:00,75.0,ModeFlight.Ready,75,0.0,200.0,-68400.0,68400.292,0,0,120,33.808,-76.352,36.181,0,0,98,"['black', 'black']",999.9,38.91
2025-10-30T12:41:59-04:00,75.5,ModeFlight.Ready,75,0.0,200.0,-68400.0,68400.292,0,0,120,33.808,-76.353,36.181,0,0,98,"['black', 'black']",999.9,38.91
2025-10-30T12:41:59-04:00,76.0,ModeFlight.Ready,75,0.0,200.0,-68400.0,68400.292,0,0,120,33.808,-76.353,36.181,0,0,98,"['black', 'black']",999.9,38.93
2025-10-30T12:42:00-04:00,76.5,ModeFlight.Ready,75,0.0,200.0,-68400.0,68400.292,0,0,120,33.808,-76.353,33.179,0,0,98,"['black', 'black']",999.9,38.93
2025-10-30T12:42:00-04:00,77.0,ModeFlight.Ready,75,0.0,200.0,-68400.0,68400.292,0,0,120,33.819,-76.352,33.179,0,0,98,"['black', 'black']",999.9,38.93
2025-10-30T12:42:01-04:00,77.5,ModeFlight.Ready,75,0.0,200.0,-68400.0,68400.292,0,0,120,33.819,-76.352,31.566,0,0,97,"['black', 'black']",999.9,38.93
2025-10-30T12:42:01-04:00,78.0,ModeFlight.Ready,75,0.0,200.0,-68400.0,68400.292,0,0,120,33.805,-76.352,31.566,0,0,97,"['black', 'black']",999.9,38.93
2025-10-30T12:42:02-04:00,78.5,ModeFlight.Ready,75,0.0,200.0,-68400.0,68400.292,0,0,120,33.805,-76.352,31.566,0,0,98,"['black', 'black']",999.9,38.93
2025-10-30T12:42:02-04:00,79.0,ModeFlight.Ready,75,0.0,200.0,-68400.0,68400.292,0,0,120,33.805,-76.352,31.566,0,0,98,"['black', 'black']",999.9,38.93
2025-10-30T12:42:03-04:00,79.5,ModeFlight.Ready,75,0.0,200.0,-68400.0,68400.292,0,0,120,33.812,-76.352,31.505,0,0,98,"['black', 'black']",999.9,38.93
2025-10-30T12:42:03-04:00,80.0,ModeFlight.Ready,75,0.0,200.0,-68400.0,68400.292,0,0,120,33.812,-76.352,31.505,0,0,98,"['black', 'black']",999.9,39.0
2025-10-30T12:42:04-04:00,80.516,ModeFlight.Ready,75,0.0,200.0,-68400.0,68400.292,0,0,120,33.817,-76.351,32.284,0,0,98,"['black', 'black']",999.9,39.0
2025-10-30T12:42:04-04:00,81.0,ModeFlight.Ready,75,0.0,200.0,-68400.0,68400.292,0,0,120,33.817,-76.351,32.858,-1,0,98,"['black', 'black']",999.9,39.0
2025-10-30T12:42:05-04:00,81.5,ModeFlight.Ready,75,0.0,200.0,-68400.0,68400.292,0,0,120,33.802,-76.346,33.424,0,0,98,"['black', 'black']",999.9,39.0
2025-10-30T12:42:05-04:00,82.0,ModeFlight.Ready,75,0.0,200.0,-68400.0,68400.292,0,0,120,33.802,-76.346,33.424,0,0,98,"['black', 'black']",999.9,39.0
2025-10-30T12:42:06-04:00,82.5,ModeFlight.Ready,75,0.0,200.0,-68400.0,68400.292,0,0,120,33.802,-76.351,34.212,0,0,98,"['black', 'black']",999.9,39.02
2025-10-30T12:42:06-04:00,83.0,ModeFlight.Ready,75,0.0,200.0,-68400.0,68400.292,0,0,120,33.81,-76.352,34.419,0,0,98,"['black', 'black']",999.9,39.04
2025-10-30T12:42:07-04:00,83.5,ModeFlight.Ready,75,0.0,200.0,-68400.0,68400.292,0,0,120,33.811,-76.354,34.552,0,0,98,"['black', 'black']",999.9,39.04
2025-10-30T12:42:07-04:00,84.0,ModeFlight.Ready,75,0.0,200.0,-68400.0,68400.292,0,0,120,33.811,-76.354,34.552,0,0,98,"['black', 'black']",999.9,39.04
2025-10-30T12:42:08-04:00,84.5,ModeFlight.Ready,75,0.0,200.0,-68400.0,68400.292,0,0,120,33.811,-76.354,34.652,0,0,98,"['black', 'black']",999.9,39.04
2025-10-30T12:42:08-04:00,85.016,ModeFlight.Ready,75,0.0,200.0,-68400.0,68400.292,0,0,120,33.809,-76.347,34.628,0,0,98,"['black', 'black']",999.9,39.06
2025-10-30T12:42:09-04:00,85.5,ModeFlight.Ready,75,0.0,200.0,-68400.0,68400.292,0,0,120,33.807,-76.349,34.582,0,0,97,"['black', 'black']",999.9,39.06
2025-10-30T12:42:09-04:00,86.0,ModeFlight.Ready,75,0.0,200.0,-68400.0,68400.292,0,0,120,33.806,-76.352,34.517,0,0,98,"['black', 'black']",999.9,39.06
2025-10-30T12:42:10-04:00,86.516,ModeFlight.Ready,75,0.0,200.0,-68400.0,68400.292,0,0,120,33.809,-76.353,34.438,0,0,97,"['black', 'black']",999.9,39.08
2025-10-30T12:42:10-04:00,87.0,ModeFlight.Ready,75,0.0,200.0,-68400.0,68400.292,0,0,120,33.81,-76.355,34.438,-1,0,97,"['black', 'black']",999.9,39.08
2025-10-30T12:42:11-04:00,87.5,ModeFlight.Ready,75,0.0,200.0,-68400.0,68400.292,0,0,120,33.81,-76.355,34.255,-1,0,97,"['black', 'black']",999.9,39.11
2025-10-30T12:42:11-04:00,88.0,ModeFlight.Ready,75,0.0,200.0,-68400.0,68400.292,0,0,120,33.81,-76.353,34.19,-1,0,97,"['black', 'black']",999.9,39.11
2025-10-30T12:42:12-04:00,88.5,ModeFlight.Ready,75,0.0,200.0,-68400.0,68400.292,0,0,120,33.81,-76.354,34.19,-1,0,98,"['black', 'black']",999.9,39.11
2025-10-30T12:42:12-04:00,89.0,ModeFlight.Ready,75,0.0,200.0,-68400.0,68400.292,0,0,120,33.81,-76.354,34.19,0,0,97,"['black', 'black']",999.9,39.11
2025-10-30T12:42:13-04:00,89.5,ModeFlight.Ready,75,0.0,200.0,-68400.0,68400.292,0,0,120,33.81,-76.354,34.19,0,0,98,"['black', 'black']",999.9,39.11
2025-10-30T12:42:13-04:00,90.0,ModeFlight.Ready,75,0.0,200.0,-68400.0,68400.292,0,0,120,33.81,-76.354,34.19,0,0,97,"['black', 'black']",999.9,39.14
2025-10-30T12:42:14-04:00,90.5,ModeFlight.Ready,75,0.0,200.0,-68400.0,68400.292,0,0,120,33.811,-76.352,34.022,0,0,97,"['black', 'black']",999.9,39.14
2025-10-30T12:42:14-04:00,91.0,ModeFlight.Ready,75,0.0,200.0,-68400.0,68400.292,0,0,120,33.811,-76.354,34.034,0,0,97,"['black', 'black']",999.9,39.16
2025-10-30T12:42:15-04:00,91.5,ModeFlight.Ready,75,0.0,200.0,-68400.0,68400.292,0,0,120,33.81,-76.351,34.002,2,0,97,"['black', 'black']",999.9,39.16
2025-10-30T12:42:15-04:00,92.016,ModeFlight.Ready,75,0.0,200.0,-68400.0,68400.292,0,0,120,33.809,-76.351,34.002,2,0,97,"['black', 'black']",999.9,39.16
2025-10-30T12:42:16-04:00,92.516,ModeFlight.Ready,75,0.0,200.0,-68400.0,68400.292,0,0,120,33.809,-76.348,33.567,2,0,98,"['black', 'black']",999.9,39.18
