ts_iso,elapsed_s,state,battery_percent,height_cm,flow_vx_cms,flow_vy_cms,speed_cms,angle_roll_deg,angle_pitch_deg,angle_yaw_deg,accel_x,accel_y,accel_z,colors,front_range,temp_c
2025-10-29T19:57:28-04:00,0.0,ModeFlight.Ready,74,-100.0,500.0,2000.0,2061.553,0,0,86,0,0,98,"['yellow', 'yellow']",16.4,47.6
2025-10-29T19:57:28-04:00,0.5,ModeFlight.Ready,74,-100.0,300.0,-900.0,948.683,0,0,86,0,0,98,"['yellow', 'yellow']",16.6,47.62
2025-10-29T19:57:29-04:00,1.0,ModeFlight.Ready,74,-100.0,-700.0,-8700.0,8728.115,0,0,86,0,0,97,"['yellow', 'yellow']",11.2,47.63
2025-10-29T19:57:29-04:00,1.515,ModeFlight.Ready,74,-100.0,-500.0,12700.0,12709.839,0,0,86,0,0,98,"['yellow', 'yellow']",16.5,47.65
2025-10-29T19:57:30-04:00,2.0,ModeFlight.Ready,74,-100.0,-300.0,1700.0,1726.268,0,0,86,0,0,98,"['yellow', 'yellow']",12.4,47.65
2025-10-29T19:57:30-04:00,2.5,ModeFlight.Ready,74,-100.0,0.0,-3100.0,3100.0,0,0,86,0,0,98,"['yellow', 'yellow']",13.7,47.65
2025-10-29T19:57:31-04:00,3.0,ModeFlight.Ready,74,-100.0,0.0,-900.0,900.0,0,0,86,0,0,98,"['yellow', 'yellow']",16.7,47.66
2025-10-29T19:57:31-04:00,3.5,ModeFlight.Ready,74,-100.0,-900.0,-5000.0,5080.354,0,0,86,0,0,98,"['yellow', 'yellow']",12.5,47.67
2025-10-29T19:57:32-04:00,4.0,ModeFlight.Ready,74,-100.0,-400.0,-4400.0,4418.144,0,0,86,0,0,97,"['yellow', 'yellow']",17.4,47.69
2025-10-29T19:57:32-04:00,4.5,ModeFlight.Ready,74,-100.0,500.0,-5700.0,5721.888,0,0,86,0,0,97,"['yellow', 'yellow']",15.3,47.69
2025-10-29T19:57:33-04:00,5.0,ModeFlight.Ready,74,-100.0,-400.0,200.0,447.214,0,0,86,0,0,97,"['yellow', 'yellow']",13.4,47.7
2025-10-29T19:57:33-04:00,5.5,ModeFlight.Ready,74,-100.0,-100.0,-5000.0,5001.0,0,0,86,0,0,98,"['yellow', 'yellow']",15.3,47.7
2025-10-29T19:57:34-04:00,6.0,ModeFlight.Ready,74,-100.0,-100.0,-8400.0,8400.595,0,0,86,0,0,98,"['yellow', 'yellow']",15.2,47.71
2025-10-29T19:57:34-04:00,6.5,ModeFlight.Ready,74,-100.0,-200.0,-1400.0,1414.214,0,0,86,0,0,98,"['yellow', 'yellow']",13.4,47.71
2025-10-29T19:57:35-04:00,7.0,ModeFlight.Ready,74,-100.0,-200.0,4300.0,4304.649,0,0,86,0,0,98,"['yellow', 'yellow']",8.1,47.71
2025-10-29T19:57:35-04:00,7.5,ModeFlight.Ready,74,-100.0,500.0,-10400.0,10412.012,0,0,86,0,0,97,"['yellow', 'yellow']",11.6,47.71
2025-10-29T19:57:36-04:00,8.0,ModeFlight.Ready,74,-100.0,0.0,-1700.0,1700.0,0,0,86,0,0,98,"['yellow', 'yellow']",14.1,47.71
2025-10-29T19:57:36-04:00,8.5,ModeFlight.Ready,74,-100.0,400.0,9700.0,9708.244,0,0,87,-13,1,102,"['yellow', 'yellow']",2.6,47.72
2025-10-29T19:57:37-04:00,9.0,ModeFlight.Ready,74,-100.0,-700.0,-4900.0,4949.747,0,3,94,-69,18,83,"['black', 'black']",3.8,47.72
2025-10-29T19:57:37-04:00,9.515,ModeFlight.Ready,74,-100.0,-2100.0,-1600.0,2640.076,-3,0,153,-4,0,93,"['black', 'black']",3.2,47.72
2025-10-29T19:57:38-04:00,10.015,ModeFlight.Ready,74,-100.0,700.0,-36500.0,36506.712,-1,0,158,-1,1,98,"['purple', 'purple']",44.4,47.72
2025-10-29T19:57:38-04:00,10.5,ModeFlight.Ready,74,-100.0,600.0,5200.0,5234.501,-1,0,158,-2,1,98,"['purple', 'purple']",43.4,47.71
2025-10-29T19:57:39-04:00,11.0,ModeFlight.Ready,74,-100.0,800.0,3300.0,3395.585,0,0,158,-1,2,97,"['purple', 'purple']",42.8,47.71
2025-10-29T19:57:39-04:00,11.5,ModeFlight.Ready,74,-100.0,0.0,-30100.0,30100.0,0,0,158,0,0,98,"['purple', 'purple']",43.3,47.71
2025-10-29T19:57:40-04:00,12.0,ModeFlight.Ready,74,-100.0,0.0,4100.0,4100.0,0,0,158,0,0,97,"['purple', 'purple']",44.5,47.71
2025-10-29T19:57:40-04:00,12.5,ModeFlight.Ready,74,-100.0,0.0,39700.0,39700.0,0,0,157,7,-3,97,"['purple', 'purple']",44.1,47.72
2025-10-29T19:57:41-04:00,13.0,ModeFlight.Ready,74,-100.0,-400.0,11200.0,11207.141,3,9,160,-27,-7,98,"['black', 'black']",14.3,47.7
2025-10-29T19:57:41-04:00,13.5,ModeFlight.Ready,74,-100.0,-28000.0,44200.0,52322.462,-3,11,149,1,38,120,"['black', 'black']",19.7,47.69
2025-10-29T19:57:42-04:00,14.0,ModeFlight.Ready,74,-100.0,-14500.0,-68400.0,69920.026,4,3,165,-20,10,92,"['black', 'black']",21.2,47.68
2025-10-29T19:57:42-04:00,14.5,ModeFlight.Ready,74,-100.0,0.0,-4300.0,4300.0,1,0,163,0,0,98,"['blue', 'blue']",34.9,47.68
2025-10-29T19:57:43-04:00,15.0,ModeFlight.Ready,74,-100.0,-1300.0,-2100.0,2469.818,0,0,163,0,0,98,"['blue', 'blue']",33.7,47.69
2025-10-29T19:57:43-04:00,15.5,ModeFlight.Ready,74,-100.0,500.0,4600.0,4627.094,0,0,163,0,0,97,"['blue', 'blue']",34.1,47.68
2025-10-29T19:57:44-04:00,16.0,ModeFlight.Ready,74,-100.0,-100.0,-41400.0,41400.121,0,0,163,0,0,98,"['blue', 'blue']",34.7,47.66
2025-10-29T19:57:44-04:00,16.5,ModeFlight.Ready,74,-100.0,-300.0,40400.0,40401.114,0,0,163,0,2,97,"['blue', 'blue']",33.6,47.68
2025-10-29T19:57:45-04:00,17.0,ModeFlight.Ready,74,-100.0,500.0,8400.0,8414.868,-12,0,166,-7,-11,123,"['black', 'black']",42.9,47.67
2025-10-29T19:57:45-04:00,17.5,ModeFlight.Ready,74,-100.0,-44000.0,55500.0,70825.49,0,13,172,-19,-28,130,"['black', 'black']",16.0,47.68
2025-10-29T19:57:46-04:00,18.0,ModeFlight.Ready,74,-100.0,68400.0,-68400.0,96732.208,-1,1,172,29,-5,83,"['light blue', 'light blue']",15.7,47.66
2025-10-29T19:57:46-04:00,18.5,ModeFlight.Ready,74,-100.0,68400.0,70700.0,98371.998,0,0,172,0,0,98,"['white', 'white']",18.3,47.65
2025-10-29T19:57:47-04:00,19.0,ModeFlight.Ready,74,-100.0,-15300.0,-58400.0,60370.937,0,0,172,0,0,98,"['white', 'white']",18.2,47.65
2025-10-29T19:57:47-04:00,19.5,ModeFlight.Ready,74,-100.0,21200.0,-26800.0,34171.333,0,0,172,0,0,97,"['white', 'white']",19.2,47.64
2025-10-29T19:57:48-04:00,20.015,ModeFlight.Ready,74,-100.0,500.0,-43500.0,43502.873,0,0,172,0,0,98,"['white', 'white']",18.0,47.65
2025-10-29T19:57:48-04:00,20.5,ModeFlight.Ready,74,-100.0,1700.0,-64100.0,64122.539,0,0,172,0,0,98,"['white', 'white']",19.1,47.65
2025-10-29T19:57:49-04:00,21.0,ModeFlight.Ready,74,-100.0,600.0,-2400.0,2473.863,2,-4,168,5,-20,78,"['black', 'black']",999.9,47.65
2025-10-29T19:57:49-04:00,21.5,ModeFlight.Ready,74,-100.0,19700.0,33900.0,39208.417,2,-1,167,2,-6,101,"['black', 'black']",999.9,47.64
2025-10-29T19:57:50-04:00,22.0,ModeFlight.Ready,74,-100.0,300.0,-48400.0,48400.93,-1,0,164,-2,2,97,"['red', 'red']",18.3,47.64
2025-10-29T19:57:50-04:00,22.5,ModeFlight.Ready,74,-100.0,-800.0,-68400.0,68404.678,0,0,164,0,0,98,"['red', 'red']",19.5,47.63
2025-10-29T19:57:51-04:00,23.0,ModeFlight.Ready,74,-100.0,500.0,-49300.0,49302.535,0,0,164,0,0,98,"['red', 'red']",19.3,47.62
2025-10-29T19:57:51-04:00,23.5,ModeFlight.Ready,74,-100.0,600.0,-63300.0,63302.844,0,0,165,-19,6,98,"['red', 'red']",20.1,47.62
2025-10-29T19:57:52-04:00,24.0,ModeFlight.Ready,74,-100.0,0.0,-68400.0,68400.0,0,4,165,-3,-3,113,"['red', 'red']",14.3,47.61
2025-10-29T19:57:52-04:00,24.5,ModeFlight.Ready,74,-100.0,9900.0,25600.0,27447.586,22,12,147,-13,31,91,"['red', 'red']",19.1,47.6
2025-10-29T19:57:53-04:00,25.0,ModeFlight.Ready,74,-100.0,0.0,-4800.0,4800.0,24,3,167,7,4,96,"['black', 'black']",999.9,47.59
2025-10-29T19:57:53-04:00,25.5,ModeFlight.Ready,74,-100.0,-5700.0,4500.0,7262.231,8,10,172,-25,10,73,"['black', 'black']",16.9,47.59
2025-10-29T19:57:54-04:00,26.0,ModeFlight.Ready,74,-100.0,500.0,2600.0,2647.64,-1,1,176,0,0,98,"['light blue', 'light blue']",23.5,47.58
2025-10-29T19:57:54-04:00,26.5,ModeFlight.Ready,74,0.0,-100.0,-6800.0,6800.735,0,0,176,0,0,98,"['light blue', 'light blue']",23.0,47.58
2025-10-29T19:57:55-04:00,27.0,ModeFlight.Ready,74,1.9,0.0,42500.0,42500.0,0,0,176,0,0,98,"['light blue', 'light blue']",21.6,47.57
2025-10-29T19:57:55-04:00,27.5,ModeFlight.Ready,74,-100.0,-800.0,1900.0,2061.553,0,0,176,0,0,98,"['light blue', 'light blue']",23.1,47.56
2025-10-29T19:57:56-04:00,28.0,ModeFlight.Ready,74,-100.0,1000.0,-3300.0,3448.188,0,0,176,0,0,98,"['light blue', 'light blue']",24.0,47.55
2025-10-29T19:57:56-04:00,28.5,ModeFlight.Ready,74,-100.0,300.0,-3700.0,3712.142,0,0,176,0,0,97,"['light blue', 'light blue']",22.8,47.53
2025-10-29T19:57:57-04:00,29.015,ModeFlight.Ready,74,-100.0,1700.0,-5000.0,5281.098,0,0,176,0,0,98,"['light blue', 'light blue']",21.6,47.54
2025-10-29T19:57:57-04:00,29.5,ModeFlight.Ready,74,-100.0,-800.0,-200.0,824.621,0,0,176,0,0,98,"['light blue', 'light blue']",22.0,47.53
2025-10-29T19:57:58-04:00,30.0,ModeFlight.Ready,74,-100.0,1000.0,200.0,1019.804,0,0,176,0,0,97,"['light blue', 'light blue']",22.0,47.53
2025-10-29T19:57:58-04:00,30.5,ModeFlight.Ready,74,-100.0,900.0,-4300.0,4393.177,0,0,176,0,0,97,"['light blue', 'light blue']",21.3,47.52
2025-10-29T19:57:59-04:00,31.015,ModeFlight.Ready,74,-100.0,-1100.0,-4700.0,4827.007,0,0,176,0,0,98,"['light blue', 'light blue']",22.8,47.53
2025-10-29T19:57:59-04:00,31.5,ModeFlight.Ready,74,-100.0,-800.0,-2300.0,2435.159,0,0,176,0,0,97,"['light blue', 'light blue']",23.1,47.52
2025-10-29T19:58:00-04:00,32.0,ModeFlight.Ready,74,-100.0,300.0,13600.0,13603.308,0,0,176,0,0,98,"['light blue', 'light blue']",23.5,47.52
2025-10-29T19:58:00-04:00,32.5,ModeFlight.Ready,74,-100.0,-100.0,1300.0,1303.84,0,0,176,0,0,97,"['light blue', 'light blue']",23.3,47.52
2025-10-29T19:58:01-04:00,33.015,ModeFlight.Ready,74,-100.0,300.0,-900.0,948.683,0,0,176,0,0,98,"['light blue', 'light blue']",21.7,47.5
2025-10-29T19:58:01-04:00,33.5,ModeFlight.Ready,74,-100.0,900.0,-1800.0,2012.461,0,0,176,0,0,98,"['light blue', 'light blue']",23.7,47.5
2025-10-29T19:58:02-04:00,34.0,ModeFlight.Ready,74,-100.0,-800.0,2200.0,2340.94,0,0,170,-4,0,111,"['light blue', 'light blue']",24.5,47.5
2025-10-29T19:58:02-04:00,34.5,ModeFlight.Ready,74,-100.0,1000.0,-6500.0,6576.473,-9,20,168,-28,-3,76,"['black', 'black']",22.3,47.5
2025-10-29T19:58:03-04:00,35.0,ModeFlight.Ready,74,-100.0,13700.0,39300.0,41619.467,-11,21,-179,-41,-26,82,"['black', 'black']",16.2,47.48
2025-10-29T19:58:03-04:00,35.5,ModeFlight.Ready,74,-100.0,-1800.0,-32100.0,32150.428,2,17,-179,-30,9,90,"['black', 'black']",20.0,47.48
2025-10-29T19:58:04-04:00,36.0,ModeFlight.Ready,74,-100.0,-1800.0,2900.0,3413.21,4,6,106,-8,25,104,"['black', 'black']",999.9,47.47
2025-10-29T19:58:04-04:00,36.5,ModeFlight.Ready,74,-100.0,6900.0,-22800.0,23821.209,1,-1,44,12,19,102,"['black', 'black']",153.9,47.47
2025-10-29T19:58:05-04:00,37.0,ModeFlight.Ready,74,999.9,22100.0,-7600.0,23370.28,7,0,40,20,12,103,"['black', 'black']",90.5,47.46
2025-10-29T19:58:05-04:00,37.5,ModeFlight.Ready,74,91.6,31700.0,16300.0,35645.196,-1,2,58,-28,-18,79,"['black', 'black']",105.7,47.44
2025-10-29T19:58:06-04:00,38.0,ModeFlight.Ready,74,90.6,17400.0,-1900.0,17503.428,1,7,79,4,-4,121,"['black', 'black']",999.9,47.42
2025-10-29T19:58:06-04:00,38.5,ModeFlight.Ready,74,97.7,-8200.0,22900.0,24323.857,6,10,107,-20,14,67,"['black', 'black']",999.9,47.39
2025-10-29T19:58:07-04:00,39.0,ModeFlight.Ready,74,47.9,-20900.0,22900.0,31003.548,-10,25,87,-34,-6,87,"['black', 'black']",999.9,47.35
2025-10-29T19:58:07-04:00,39.5,ModeFlight.Ready,74,71.0,33100.0,22000.0,39744.308,-10,10,71,-68,-49,84,"['black', 'black']",999.9,47.35
2025-10-29T19:58:08-04:00,40.0,ModeFlight.Ready,74,5.4,12200.0,17600.0,21414.948,-12,16,68,11,-30,136,"['black', 'black']",999.9,47.3
2025-10-29T19:58:08-04:00,40.5,ModeFlight.Ready,74,2.4,61300.0,26600.0,66822.526,-2,4,71,0,0,98,"['black', 'black']",999.9,47.27
2025-10-29T19:58:09-04:00,41.0,ModeFlight.Ready,73,2.8,61300.0,26600.0,66822.526,-1,3,71,0,0,97,"['black', 'black']",999.9,47.24
2025-10-29T19:58:09-04:00,41.5,ModeFlight.Ready,74,-100.0,61300.0,26600.0,66822.526,0,0,71,1,0,97,"['black', 'black']",999.9,47.22
2025-10-29T19:58:10-04:00,42.0,ModeFlight.Ready,74,-100.0,-100.0,1000.0,1004.988,0,0,71,0,0,98,"['black', 'black']",999.9,47.2
2025-10-29T19:58:10-04:00,42.5,ModeFlight.Ready,74,-100.0,300.0,18500.0,18502.432,0,0,71,0,0,98,"['black', 'black']",999.9,47.18
2025-10-29T19:58:11-04:00,43.0,ModeFlight.Ready,74,-100.0,0.0,-2500.0,2500.0,0,0,71,0,0,98,"['black', 'black']",999.9,47.19
2025-10-29T19:58:11-04:00,43.5,ModeFlight.Ready,74,-100.0,0.0,-43600.0,43600.0,0,0,71,0,0,97,"['black', 'black']",999.9,47.19
2025-10-29T19:58:12-04:00,44.0,ModeFlight.Ready,74,-100.0,0.0,3700.0,3700.0,0,0,71,0,0,98,"['black', 'black']",999.9,47.2
2025-10-29T19:58:12-04:00,44.5,ModeFlight.Ready,74,-100.0,500.0,-1100.0,1208.305,0,0,71,0,0,98,"['black', 'black']",999.9,47.21
2025-10-29T19:58:13-04:00,45.0,ModeFlight.Ready,74,-100.0,-100.0,-33200.0,33200.151,0,0,71,0,0,98,"['black', 'black']",999.9,47.22
2025-10-29T19:58:13-04:00,45.5,ModeFlight.Ready,74,-100.0,200.0,76000.0,76000.263,0,0,71,0,0,98,"['black', 'black']",999.9,47.21
2025-10-29T19:58:14-04:00,46.0,ModeFlight.Ready,74,-100.0,0.0,-1800.0,1800.0,0,0,71,0,0,98,"['black', 'black']",999.9,47.2
2025-10-29T19:58:14-04:00,46.5,ModeFlight.Ready,74,-100.0,300.0,-49900.0,49900.902,0,0,71,0,0,97,"['black', 'black']",999.9,47.21
2025-10-29T19:58:15-04:00,47.0,ModeFlight.Ready,74,-100.0,-100.0,2900.0,2901.724,0,0,71,0,0,98,"['black', 'black']",999.9,47.22
2025-10-29T19:58:15-04:00,47.5,ModeFlight.Ready,74,-100.0,100.0,21300.0,21300.235,0,0,71,0,0,98,"['black', 'black']",999.9,47.22
2025-10-29T19:58:16-04:00,48.015,ModeFlight.Ready,74,-100.0,200.0,-800.0,824.621,0,0,71,0,0,98,"['black', 'black']",999.9,47.22
2025-10-29T19:58:16-04:00,48.5,ModeFlight.Ready,74,-100.0,-300.0,-33100.0,33101.359,0,0,71,0,0,98,"['black', 'black']",999.9,47.22
2025-10-29T19:58:17-04:00,49.015,ModeFlight.Ready,74,-100.0,100.0,-55300.0,55300.09,0,0,71,0,0,98,"['black', 'black']",999.9,47.23
2025-10-29T19:58:17-04:00,49.5,ModeFlight.Ready,74,-100.0,300.0,4500.0,4509.989,0,0,71,0,0,97,"['black', 'black']",999.9,47.23
2025-10-29T19:58:18-04:00,50.0,ModeFlight.Ready,74,-100.0,0.0,68400.0,68400.0,0,0,71,0,0,98,"['black', 'black']",999.9,47.23
2025-10-29T19:58:18-04:00,50.5,ModeFlight.Ready,74,-100.0,200.0,-1100.0,1118.034,0,0,71,0,0,97,"['black', 'black']",999.9,47.23
2025-10-29T19:58:19-04:00,51.0,ModeFlight.Ready,74,-100.0,-100.0,-6000.0,6000.833,0,0,71,0,0,98,"['black', 'black']",999.9,47.23
2025-10-29T19:58:19-04:00,51.5,ModeFlight.Ready,74,-100.0,0.0,800.0,800.0,0,0,71,0,0,98,"['black', 'black']",999.9,47.22
2025-10-29T19:58:20-04:00,52.0,ModeFlight.Ready,74,-100.0,200.0,-60800.0,60800.329,0,0,71,0,0,98,"['black', 'black']",999.9,47.22
2025-10-29T19:58:20-04:00,52.5,ModeFlight.Ready,74,-100.0,300.0,62500.0,62500.72,0,0,71,0,0,98,"['black', 'black']",999.9,47.21
2025-10-29T19:58:21-04:00,53.0,ModeFlight.Ready,74,-100.0,300.0,400.0,500.0,0,0,71,0,0,97,"['black', 'black']",999.9,47.21
2025-10-29T19:58:21-04:00,53.5,ModeFlight.Ready,74,-100.0,500.0,-3400.0,3436.568,0,0,71,0,0,98,"['black', 'black']",999.9,47.2
2025-10-29T19:58:22-04:00,54.0,ModeFlight.Ready,74,-100.0,0.0,34500.0,34500.0,0,0,71,0,0,98,"['black', 'black']",999.9,47.2
2025-10-29T19:58:22-04:00,54.5,ModeFlight.Ready,74,-100.0,0.0,-30200.0,30200.0,0,0,71,0,0,98,"['black', 'black']",999.9,47.19
2025-10-29T19:58:23-04:00,55.0,ModeFlight.Ready,74,-100.0,0.0,-49900.0,49900.0,0,0,71,0,0,98,"['black', 'black']",999.9,47.19
2025-10-29T19:58:23-04:00,55.5,ModeFlight.Ready,74,-100.0,-800.0,-25800.0,25812.4,0,0,71,0,0,98,"['black', 'black']",999.9,47.19
2025-10-29T19:58:24-04:00,56.0,ModeFlight.Ready,74,-100.0,200.0,-13100.0,13101.527,0,0,71,0,0,97,"['black', 'black']",999.9,47.2
2025-10-29T19:58:24-04:00,56.5,ModeFlight.Ready,74,-100.0,-400.0,-31100.0,31102.572,0,0,71,0,0,97,"['black', 'black']",999.9,47.19
2025-10-29T19:58:25-04:00,57.0,ModeFlight.Ready,74,-100.0,200.0,1600.0,1612.452,0,0,71,0,0,98,"['black', 'black']",999.9,47.18
2025-10-29T19:58:25-04:00,57.515,ModeFlight.Ready,74,-100.0,0.0,60100.0,60100.0,0,0,71,0,0,98,"['black', 'black']",999.9,47.18
2025-10-29T19:58:26-04:00,58.0,ModeFlight.Ready,74,-100.0,100.0,-1800.0,1802.776,0,0,71,0,0,98,"['black', 'black']",999.9,47.17
2025-10-29T19:58:26-04:00,58.5,ModeFlight.Ready,74,-100.0,200.0,500.0,538.516,0,0,71,0,0,98,"['black', 'black']",999.9,47.17
2025-10-29T19:58:27-04:00,59.0,ModeFlight.Ready,74,-100.0,-100.0,5100.0,5100.98,0,0,71,0,0,98,"['black', 'black']",999.9,47.17
2025-10-29T19:58:27-04:00,59.5,ModeFlight.Ready,74,-100.0,-100.0,12700.0,12700.394,0,0,71,0,0,98,"['black', 'black']",999.9,47.16
2025-10-29T19:58:28-04:00,60.0,ModeFlight.Ready,74,-100.0,0.0,-40900.0,40900.0,0,0,71,0,0,98,"['black', 'black']",999.9,47.16
2025-10-29T19:58:28-04:00,60.5,ModeFlight.Ready,74,-100.0,-100.0,-600.0,608.276,0,0,71,0,0,98,"['black', 'black']",999.9,47.16
2025-10-29T19:58:29-04:00,61.0,ModeFlight.Ready,74,-100.0,200.0,-59700.0,59700.335,0,0,71,0,0,97,"['black', 'black']",999.9,47.14
2025-10-29T19:58:29-04:00,61.515,ModeFlight.Ready,74,-100.0,200.0,-48300.0,48300.414,0,0,71,0,0,97,"['black', 'black']",999.9,47.14
2025-10-29T19:58:30-04:00,62.015,ModeFlight.Ready,74,-100.0,-700.0,-4400.0,4455.334,0,0,71,0,0,98,"['black', 'black']",999.9,47.14
2025-10-29T19:58:30-04:00,62.5,ModeFlight.Ready,74,-100.0,200.0,2100.0,2109.502,0,0,71,0,0,98,"['black', 'black']",999.9,47.13
2025-10-29T19:58:31-04:00,63.0,ModeFlight.Ready,74,-100.0,100.0,-5700.0,5700.877,0,0,71,0,0,98,"['black', 'black']",999.9,47.12
2025-10-29T19:58:31-04:00,63.515,ModeFlight.Ready,74,-100.0,200.0,600.0,632.456,0,0,71,0,0,98,"['black', 'black']",999.9,47.12
2025-10-29T19:58:32-04:00,64.0,ModeFlight.Ready,74,-100.0,-400.0,-2400.0,2433.105,0,0,71,0,0,98,"['black', 'black']",999.9,47.13
2025-10-29T19:58:32-04:00,64.5,ModeFlight.Ready,74,-100.0,500.0,51000.0,51002.451,0,0,71,0,0,97,"['black', 'black']",999.9,47.13
2025-10-29T19:58:33-04:00,65.0,ModeFlight.Ready,74,-100.0,0.0,48300.0,48300.0,0,0,71,0,0,98,"['black', 'black']",999.9,47.1
2025-10-29T19:58:33-04:00,65.515,ModeFlight.Ready,74,-100.0,300.0,200.0,360.555,0,0,71,0,0,98,"['black', 'black']",999.9,47.1
2025-10-29T19:58:34-04:00,66.0,ModeFlight.Ready,74,-100.0,-200.0,-6300.0,6303.174,0,0,71,0,0,98,"['black', 'black']",999.9,47.1
2025-10-29T19:58:34-04:00,66.5,ModeFlight.Ready,74,-100.0,300.0,1000.0,1044.031,0,0,71,0,0,97,"['black', 'black']",999.9,47.1
2025-10-29T19:58:35-04:00,67.0,ModeFlight.Ready,74,-100.0,0.0,55100.0,55100.0,0,0,71,-1,0,96,"['black', 'black']",999.9,47.1
2025-10-29T19:58:35-04:00,67.5,ModeFlight.Ready,74,-100.0,-100.0,56800.0,56800.088,0,0,71,0,0,98,"['black', 'black']",999.9,47.09
2025-10-29T19:58:36-04:00,68.0,ModeFlight.Ready,74,-100.0,-200.0,23300.0,23300.858,0,0,71,0,0,98,"['black', 'black']",999.9,47.09
2025-10-29T19:58:36-04:00,68.5,ModeFlight.Ready,74,-100.0,0.0,-200.0,200.0,0,0,70,0,0,98,"['black', 'black']",72.3,47.07
2025-10-29T19:58:37-04:00,69.0,ModeFlight.Ready,74,-100.0,-200.0,1900.0,1910.497,0,0,70,0,0,98,"['black', 'black']",999.9,47.09
2025-10-29T19:58:37-04:00,69.5,ModeFlight.Ready,74,-100.0,-500.0,5500.0,5522.681,0,0,70,0,0,97,"['black', 'black']",999.9,47.07
2025-10-29T19:58:38-04:00,70.0,ModeFlight.Ready,74,-100.0,0.0,62500.0,62500.0,0,0,70,0,0,98,"['black', 'black']",999.9,47.08
2025-10-29T19:58:38-04:00,70.5,ModeFlight.Ready,74,-100.0,-100.0,800.0,806.226,0,0,70,0,0,98,"['black', 'black']",999.9,47.07
2025-10-29T19:58:39-04:00,71.0,ModeFlight.Ready,74,-100.0,-100.0,-300.0,316.228,0,0,70,0,0,98,"['black', 'black']",999.9,47.07
2025-10-29T19:58:39-04:00,71.5,ModeFlight.Ready,74,-100.0,0.0,-4600.0,4600.0,0,0,70,0,0,98,"['black', 'black']",999.9,47.06
2025-10-29T19:58:40-04:00,72.0,ModeFlight.Ready,74,-100.0,-400.0,0.0,400.0,0,0,70,0,0,97,"['black', 'black']",999.9,47.06
2025-10-29T19:58:40-04:00,72.5,ModeFlight.Ready,74,-100.0,0.0,-15500.0,15500.0,0,0,70,0,0,98,"['black', 'black']",999.9,47.05
2025-10-29T19:58:41-04:00,73.0,ModeFlight.Ready,74,-100.0,-300.0,2800.0,2816.026,0,0,70,0,0,98,"['black', 'black']",98.6,47.04
2025-10-29T19:58:41-04:00,73.5,ModeFlight.Ready,74,-100.0,-200.0,-62600.0,62600.319,0,0,70,0,0,98,"['black', 'black']",999.9,47.04
2025-10-29T19:58:42-04:00,74.0,ModeFlight.Ready,74,-100.0,0.0,-49000.0,49000.0,0,0,70,0,0,98,"['black', 'black']",999.9,47.03
2025-10-29T19:58:42-04:00,74.5,ModeFlight.Ready,74,-100.0,0.0,52600.0,52600.0,0,0,70,0,0,98,"['black', 'black']",999.9,47.02
2025-10-29T19:58:43-04:00,75.0,ModeFlight.Ready,74,-100.0,0.0,52600.0,52600.0,0,0,70,0,0,98,"['black', 'black']",999.9,47.02
2025-10-29T19:58:43-04:00,75.5,ModeFlight.Ready,74,-100.0,0.0,52600.0,52600.0,0,0,70,0,0,98,"['black', 'black']",999.9,47.02
2025-10-29T19:58:44-04:00,76.0,ModeFlight.Ready,74,-100.0,-400.0,-5200.0,5215.362,0,0,70,0,0,98,"['black', 'black']",999.9,47.01
2025-10-29T19:58:44-04:00,76.5,ModeFlight.Ready,74,-100.0,-400.0,-5200.0,5215.362,0,0,70,0,0,98,"['black', 'black']",999.9,47.01
2025-10-29T19:58:45-04:00,77.015,ModeFlight.Ready,74,-100.0,0.0,-33300.0,33300.0,0,0,70,0,0,98,"['black', 'black']",999.9,47.01
2025-10-29T19:58:45-04:00,77.5,ModeFlight.Ready,74,-100.0,0.0,6600.0,6600.0,0,0,0,-2,7,102,"['black', 'black']",999.9,47.01
2025-10-29T19:58:46-04:00,78.0,ModeFlight.Ready,74,-100.0,0.0,6600.0,6600.0,0,0,0,0,0,101,"['black', 'black']",999.9,47.01
2025-10-29T19:58:46-04:00,78.5,ModeFlight.Ready,74,-100.0,0.0,6600.0,6600.0,0,0,0,-7,-3,100,"['black', 'black']",999.9,46.75
2025-10-29T19:58:47-04:00,79.0,ModeFlight.Ready,74,-100.0,0.0,6600.0,6600.0,0,0,0,2,6,96,"['black', 'black']",999.9,46.75
2025-10-29T19:58:47-04:00,79.5,ModeFlight.Flight,64,-100.0,0.0,-25500.0,25500.0,0,0,0,2,6,96,"['black', 'black']",999.9,46.5
2025-10-29T19:58:48-04:00,80.0,ModeFlight.Flight,63,-100.0,0.0,-25500.0,25500.0,0,0,0,2,-7,103,"['black', 'black']",999.9,46.5
2025-10-29T19:58:48-04:00,80.5,ModeFlight.Flight,62,24.6,-4200.0,1100.0,4341.659,0,0,9,-8,-2,104,"['black', 'black']",999.9,46.5
2025-10-29T19:58:49-04:00,81.0,ModeFlight.Flight,62,24.6,-4200.0,1100.0,4341.659,0,5,96,-2,-6,95,"['black', 'black']",999.9,46.5
2025-10-29T19:58:49-04:00,81.5,ModeFlight.Flight,62,24.6,-4200.0,1100.0,4341.659,-1,5,104,-10,-1,95,"['black', 'black']",999.9,46.27
2025-10-29T19:58:50-04:00,82.0,ModeFlight.Flight,63,24.6,10600.0,7400.0,12927.49,1,-2,106,0,0,92,"['black', 'black']",999.9,46.24
2025-10-29T19:58:50-04:00,82.515,ModeFlight.Flight,63,24.6,10400.0,7400.0,12764.012,1,-7,106,3,1,102,"['black', 'black']",999.9,46.2
2025-10-29T19:58:51-04:00,83.0,ModeFlight.Flight,61,999.9,-4100.0,400.0,4119.466,1,0,106,-10,10,101,"['black', 'black']",999.9,46.2
2025-10-29T19:58:51-04:00,83.5,ModeFlight.Flight,61,999.9,-4100.0,400.0,4119.466,1,0,106,-10,-4,103,"['black', 'black']",999.9,46.05
2025-10-29T19:58:52-04:00,84.0,ModeFlight.Flight,61,999.9,-4100.0,-5700.0,7021.396,-2,0,106,-9,2,98,"['black', 'black']",999.9,46.05
2025-10-29T19:58:52-04:00,84.5,ModeFlight.Flight,56,999.9,-200.0,-32100.0,32100.623,14,0,106,-9,2,98,"['black', 'black']",999.9,46.01
2025-10-29T19:58:53-04:00,85.015,ModeFlight.Flight,56,999.9,200.0,-32100.0,32100.623,-3,0,106,1,5,97,"['black', 'black']",999.9,46.01
2025-10-29T19:58:53-04:00,85.5,ModeFlight.Flight,56,999.9,200.0,-32100.0,32100.623,-4,0,106,4,7,99,"['black', 'black']",999.9,46.01
2025-10-29T19:58:54-04:00,86.0,ModeFlight.Flight,53,999.9,200.0,-32100.0,32100.623,-5,0,106,4,-4,99,"['black', 'black']",999.9,46.01
2025-10-29T19:58:54-04:00,86.5,ModeFlight.Flight,52,999.9,200.0,-32100.0,32100.623,2,0,145,-8,3,89,"['black', 'black']",999.9,46.01
2025-10-29T19:58:55-04:00,87.0,ModeFlight.Flight,52,999.9,200.0,-32100.0,32100.623,2,0,148,4,3,89,"['black', 'black']",999.9,46.01
2025-10-29T19:58:55-04:00,87.5,ModeFlight.Flight,51,999.9,200.0,-32100.0,32100.623,2,0,148,4,3,98,"['black', 'black']",189.5,45.95
2025-10-29T19:58:56-04:00,88.0,ModeFlight.Flight,51,999.9,200.0,-32100.0,32100.623,0,0,-94,-6,0,90,"['black', 'black']",999.9,45.93
2025-10-29T19:58:56-04:00,88.5,ModeFlight.Flight,51,999.9,-13400.0,-23100.0,26705.243,9,-6,-77,-1,4,90,"['black', 'black']",999.9,45.93
2025-10-29T19:58:57-04:00,89.0,ModeFlight.Flight,51,999.9,-13400.0,-6200.0,14764.823,-6,3,-78,4,-2,100,"['black', 'black']",999.9,45.88
2025-10-29T19:58:57-04:00,89.515,ModeFlight.Flight,51,999.9,-500.0,17200.0,17207.266,-7,3,-78,4,-2,100,"['black', 'black']",999.9,45.88
2025-10-29T19:58:58-04:00,90.0,ModeFlight.Flight,51,999.9,-500.0,17200.0,17207.266,-7,3,-73,3,0,108,"['black', 'black']",999.9,45.88
2025-10-29T19:58:58-04:00,90.5,ModeFlight.Flight,48,999.9,-500.0,17200.0,17207.266,1,0,-72,3,0,108,"['black', 'black']",999.9,45.95
2025-10-29T19:58:59-04:00,91.0,ModeFlight.Flight,48,999.9,-500.0,17200.0,17207.266,1,0,-42,-1,-3,99,"['black', 'black']",999.9,45.95
2025-10-29T19:58:59-04:00,91.5,ModeFlight.Flight,48,999.9,-500.0,4700.0,4726.521,0,-1,-43,-4,-7,94,"['black', 'black']",999.9,45.98
2025-10-29T19:59:00-04:00,92.015,ModeFlight.Flight,48,999.9,18200.0,-9600.0,20576.686,12,-4,-42,4,5,99,"['black', 'black']",999.9,45.98
2025-10-29T19:59:00-04:00,92.515,ModeFlight.Flight,48,999.9,-100.0,-30800.0,30800.162,12,-4,-42,4,15,95,"['black', 'black']",999.9,45.98
2025-10-29T19:59:01-04:00,93.0,ModeFlight.Flight,48,999.9,-12700.0,-4200.0,13376.472,-3,5,12,14,-3,99,"['black', 'black']",999.9,45.98
2025-10-29T19:59:01-04:00,93.5,ModeFlight.Flight,48,999.9,-12700.0,500.0,12709.839,-3,3,28,-6,-16,87,"['black', 'black']",999.9,45.98
2025-10-29T19:59:02-04:00,94.0,ModeFlight.Flight,48,999.9,-4800.0,500.0,4825.971,0,3,28,-6,-16,87,"['black', 'black']",999.9,45.98
2025-10-29T19:59:02-04:00,94.5,ModeFlight.Flight,48,999.9,-4800.0,500.0,4825.971,0,3,127,-2,12,97,"['black', 'black']",999.9,45.98
2025-10-29T19:59:03-04:00,95.0,ModeFlight.Flight,48,999.9,-4800.0,200.0,4804.165,-1,0,129,-5,3,95,"['black', 'black']",999.9,45.98
2025-10-29T19:59:03-04:00,95.5,ModeFlight.Flight,45,999.9,14600.0,200.0,14601.37,-1,0,129,-8,3,102,"['black', 'black']",999.9,45.98
2025-10-29T19:59:04-04:00,96.015,ModeFlight.Flight,44,999.9,14600.0,200.0,14601.37,0,-3,129,-8,3,102,"['black', 'black']",999.9,45.98
2025-10-29T19:59:04-04:00,96.5,ModeFlight.Flight,44,999.9,14600.0,200.0,14601.37,0,-3,129,-8,-5,86,"['black', 'black']",999.9,45.98
2025-10-29T19:59:05-04:00,97.0,ModeFlight.Flight,44,999.9,900.0,50700.0,50707.988,5,0,51,-4,-2,93,"['black', 'black']",999.9,46.07
2025-10-29T19:59:05-04:00,97.5,ModeFlight.Flight,44,999.9,-39200.0,-7600.0,39929.939,5,-1,29,-4,2,90,"['black', 'black']",999.9,46.09
2025-10-29T19:59:06-04:00,98.0,ModeFlight.Flight,44,999.9,27200.0,5700.0,27790.826,2,-11,26,-1,-5,96,"['black', 'black']",999.9,46.11
2025-10-29T19:59:06-04:00,98.5,ModeFlight.Flight,44,999.9,27200.0,5700.0,27790.826,-2,1,26,-5,1,102,"['black', 'black']",999.9,46.11
2025-10-29T19:59:07-04:00,99.0,ModeFlight.Flight,44,999.9,-43800.0,-5900.0,44195.588,-2,1,26,-5,1,102,"['black', 'black']",999.9,46.11
2025-10-29T19:59:07-04:00,99.5,ModeFlight.Flight,44,999.9,-11800.0,1000.0,11842.297,-2,1,26,-5,1,102,"['black', 'black']",999.9,46.11
2025-10-29T19:59:08-04:00,100.0,ModeFlight.Flight,44,999.9,0.0,-4900.0,4900.0,-2,1,26,-5,1,106,"['black', 'black']",999.9,46.11
2025-10-29T19:59:08-04:00,100.5,ModeFlight.Flight,44,999.9,200.0,11600.0,11601.724,0,2,64,1,-12,106,"['black', 'black']",999.9,46.11
2025-10-29T19:59:09-04:00,101.0,ModeFlight.Flight,44,999.9,-1700.0,200.0,1711.724,0,2,64,1,-12,106,"['black', 'black']",999.9,46.11
2025-10-29T19:59:09-04:00,101.5,ModeFlight.Flight,44,999.9,-1700.0,200.0,1711.724,0,2,64,3,0,85,"['black', 'black']",999.9,46.11
2025-10-29T19:59:10-04:00,102.0,ModeFlight.Flight,44,999.9,-8900.0,600.0,8920.202,1,5,-164,3,0,85,"['black', 'black']",161.3,46.11
2025-10-29T19:59:10-04:00,102.5,ModeFlight.Flight,44,999.9,-700.0,-600.0,921.954,0,3,-114,-8,-2,121,"['black', 'black']",146.6,46.11
2025-10-29T19:59:11-04:00,103.0,ModeFlight.Flight,44,999.9,-700.0,-600.0,921.954,0,3,-114,1,-4,90,"['black', 'black']",145.7,46.11
2025-10-29T19:59:11-04:00,103.5,ModeFlight.Flight,44,999.9,-800.0,-300.0,854.4,2,3,-64,1,-4,112,"['black', 'black']",145.7,46.11
2025-10-29T19:59:12-04:00,104.0,ModeFlight.Flight,44,999.9,-800.0,-300.0,854.4,0,1,0,0,4,91,"['black', 'black']",145.7,46.12
2025-10-29T19:59:12-04:00,104.5,ModeFlight.Flight,44,999.9,-800.0,-7300.0,7343.705,-2,1,1,-7,-7,68,"['black', 'black']",145.7,46.12
2025-10-29T19:59:13-04:00,105.0,ModeFlight.Flight,44,999.9,-1900.0,-500.0,1964.688,-2,1,1,-7,-7,68,"['black', 'black']",145.7,46.07
2025-10-29T19:59:13-04:00,105.5,ModeFlight.Flight,43,999.9,-2100.0,-400.0,2137.756,-2,1,1,-7,-7,68,"['black', 'black']",999.9,46.1
2025-10-29T19:59:14-04:00,106.0,ModeFlight.Flight,42,999.9,-2100.0,-400.0,2137.756,-2,1,1,-5,0,101,"['black', 'black']",999.9,46.1
2025-10-29T19:59:14-04:00,106.5,ModeFlight.Flight,42,999.9,-2100.0,100.0,2102.38,-1,4,1,-2,0,101,"['black', 'black']",999.9,46.17
2025-10-29T19:59:15-04:00,107.0,ModeFlight.Flight,42,999.9,-12700.0,100.0,12700.394,-1,4,1,-2,-7,98,"['black', 'black']",999.9,46.17
2025-10-29T19:59:15-04:00,107.515,ModeFlight.Flight,42,999.9,-12700.0,100.0,12700.394,0,-1,0,-5,-2,98,"['black', 'black']",999.9,46.17
2025-10-29T19:59:16-04:00,108.0,ModeFlight.Flight,42,999.9,44900.0,-6700.0,45397.136,0,-1,1,-11,1,101,"['black', 'black']",999.9,46.17
2025-10-29T19:59:16-04:00,108.5,ModeFlight.Flight,43,999.9,44900.0,-6700.0,45397.136,0,-3,8,-7,-2,97,"['black', 'black']",999.9,46.17
2025-10-29T19:59:17-04:00,109.0,ModeFlight.Flight,43,999.9,44900.0,-500.0,44902.784,-1,-1,10,0,2,101,"['black', 'black']",999.9,46.17
2025-10-29T19:59:17-04:00,109.5,ModeFlight.Flight,42,999.9,-1000.0,0.0,1000.0,-1,0,9,1,-9,100,"['black', 'black']",999.9,46.17
2025-10-29T19:59:18-04:00,110.0,ModeFlight.Flight,42,999.9,-600.0,0.0,600.0,0,0,9,1,-9,100,"['black', 'black']",999.9,46.17
2025-10-29T19:59:18-04:00,110.5,ModeFlight.Flight,42,999.9,-600.0,0.0,600.0,0,0,9,1,-9,95,"['black', 'black']",999.9,46.17
2025-10-29T19:59:19-04:00,111.0,ModeFlight.Flight,42,999.9,-600.0,0.0,600.0,-1,0,9,-8,4,95,"['black', 'black']",20.7,46.17
2025-10-29T19:59:19-04:00,111.5,ModeFlight.Flight,42,999.9,-600.0,0.0,600.0,-1,0,9,-8,4,95,"['black', 'black']",999.9,46.11
2025-10-29T19:59:20-04:00,112.0,ModeFlight.Flight,42,999.9,1500.0,25000.0,25044.96,-1,0,9,-8,4,95,"['black', 'black']",999.9,46.15
2025-10-29T19:59:20-04:00,112.5,ModeFlight.Flight,42,999.9,-200.0,8300.0,8302.409,-1,0,9,-8,-8,100,"['black', 'black']",999.9,46.15
2025-10-29T19:59:21-04:00,113.0,ModeFlight.Flight,41,999.9,-200.0,8300.0,8302.409,5,0,9,5,-9,105,"['black', 'black']",999.9,46.15
2025-10-29T19:59:21-04:00,113.5,ModeFlight.Flight,41,999.9,-200.0,4400.0,4404.543,0,0,9,-7,-5,96,"['black', 'black']",999.9,46.15
2025-10-29T19:59:22-04:00,114.0,ModeFlight.Flight,41,999.9,-1000.0,4400.0,4512.206,0,0,9,-7,-5,96,"['black', 'black']",999.9,46.15
2025-10-29T19:59:22-04:00,114.5,ModeFlight.Flight,41,999.9,-6300.0,-29400.0,30067.424,0,0,9,-7,-5,96,"['black', 'black']",999.9,46.08
2025-10-29T19:59:23-04:00,115.0,ModeFlight.Flight,41,999.9,-6300.0,9000.0,10985.9,1,0,9,-5,-4,98,"['black', 'black']",999.9,46.08
2025-10-29T19:59:23-04:00,115.5,ModeFlight.Flight,41,999.9,100.0,9000.0,9000.556,2,0,8,-7,-1,99,"['black', 'black']",999.9,46.08
2025-10-29T19:59:24-04:00,116.0,ModeFlight.Flight,41,999.9,100.0,-6600.0,6600.758,-4,11,8,0,3,99,"['black', 'black']",999.9,46.0
2025-10-29T19:59:24-04:00,116.5,ModeFlight.Flight,41,999.9,28900.0,0.0,28900.0,-4,11,9,-6,-4,102,"['black', 'black']",999.9,46.0
2025-10-29T19:59:25-04:00,117.0,ModeFlight.Flight,41,999.9,28900.0,0.0,28900.0,-1,-1,9,-11,-4,102,"['black', 'black']",999.9,46.0
2025-10-29T19:59:25-04:00,117.5,ModeFlight.Flight,41,999.9,28900.0,0.0,28900.0,-1,-1,9,4,7,96,"['black', 'black']",999.9,46.0
2025-10-29T19:59:26-04:00,118.0,ModeFlight.Flight,41,999.9,28900.0,0.0,28900.0,0,0,9,0,-6,94,"['black', 'black']",999.9,46.0
2025-10-29T19:59:26-04:00,118.5,ModeFlight.Flight,41,999.9,28900.0,0.0,28900.0,-2,0,9,0,0,105,"['black', 'black']",999.9,46.0
2025-10-29T19:59:27-04:00,119.0,ModeFlight.Flight,41,999.9,28900.0,0.0,28900.0,-4,2,9,1,0,87,"['black', 'black']",999.9,46.0
2025-10-29T19:59:27-04:00,119.5,ModeFlight.Flight,41,25.5,28900.0,0.0,28900.0,0,0,9,0,0,87,"['black', 'black']",999.9,46.0
2025-10-29T19:59:28-04:00,120.0,ModeFlight.Flight,41,10.0,28900.0,0.0,28900.0,0,0,9,0,0,87,"['black', 'black']",119.9,45.97
2025-10-29T19:59:28-04:00,120.5,ModeFlight.Ready,43,10.0,28900.0,0.0,28900.0,0,0,9,0,0,112,"['yellow', 'yellow']",119.9,45.97
2025-10-29T19:59:29-04:00,121.0,ModeFlight.Ready,43,10.0,28900.0,0.0,28900.0,0,0,13,1,0,97,"['yellow', 'yellow']",119.9,45.97
2025-10-29T19:59:29-04:00,121.5,ModeFlight.Ready,46,10.0,28900.0,0.0,28900.0,0,0,13,0,-1,98,"['yellow', 'yellow']",34.9,45.97
2025-10-29T19:59:30-04:00,122.0,ModeFlight.Ready,46,-100.0,28900.0,0.0,28900.0,0,0,13,1,-1,98,"['yellow', 'yellow']",34.9,45.97
2025-10-29T19:59:30-04:00,122.515,ModeFlight.Ready,46,-100.0,28900.0,-48200.0,56200.089,0,0,13,1,0,98,"['yellow', 'yellow']",35.4,46.05
