ts_iso,elapsed_s,state,battery_percent,height_cm,bottom_range_cm,front_range_cm,flow_vx_cms,flow_vy_cms,speed_cms,angle_roll_deg,angle_pitch_deg,angle_yaw_deg,rel_x,rel_y,rel_z,accel_x,accel_y,accel_z,color_front,color_back,temp_c
2025-11-05T18:18:26-05:00,0.0,ModeFlight.Ready,91,0.0,0.0,36.4,0,-62800.0,62800.0,0,0,116,1.796,-2.306,-0.008,0,0,97,Unknown,white,0
2025-11-05T18:18:27-05:00,0.5,ModeFlight.Ready,91,0.0,0.0,32.3,-61200.0,-60400.0,85986.045,0,0,117,1.797,-2.307,-0.008,1,0,98,white,white,0
2025-11-05T18:18:27-05:00,1.0,ModeFlight.Ready,91,0.0,0.0,32.3,-61200.0,-60400.0,85986.045,0,0,117,1.797,-2.307,-0.008,1,0,98,white,white,38.08
2025-11-05T18:18:28-05:00,1.5,ModeFlight.Ready,91,0.0,0.0,22.4,-61200.0,-60400.0,85986.045,0,0,116,1.797,-2.309,0.208,0,0,98,white,white,38.08
2025-11-05T18:18:28-05:00,2.0,ModeFlight.Ready,91,0.0,0.0,22.4,-61200.0,-60400.0,85986.045,0,0,116,1.797,-2.306,0.146,0,0,98,white,white,38.08
2025-11-05T18:18:29-05:00,2.5,ModeFlight.Ready,91,0.0,0.0,22.4,-500.0,-10100.0,10112.369,0,0,116,1.797,-2.306,0.146,0,0,97,white,white,38.09
2025-11-05T18:18:29-05:00,3.0,ModeFlight.Ready,91,0.0,0.0,22.1,-500.0,-10100.0,10112.369,0,0,116,1.797,-2.306,0.146,0,0,98,white,white,38.09
2025-11-05T18:18:30-05:00,3.5,ModeFlight.Ready,91,0.0,0.0,22.2,-500.0,-68400.0,68401.827,0,0,116,1.797,-2.306,-0.138,0,0,98,white,white,38.09
2025-11-05T18:18:30-05:00,4.0,ModeFlight.Ready,91,0.0,0.0,22.4,-68400.0,-68400.0,96732.208,0,0,116,1.796,-2.308,-0.132,0,0,98,white,white,38.09
2025-11-05T18:18:31-05:00,4.5,ModeFlight.Ready,91,0.0,0.0,22.4,-68400.0,-62500.0,92654.25,0,0,116,1.796,-2.308,-0.132,0,0,97,white,white,38.13
2025-11-05T18:18:31-05:00,5.0,ModeFlight.Ready,91,0.0,0.0,22.4,0.0,41100.0,41100.0,0,0,116,1.796,-2.308,-0.132,0,0,98,white,white,38.13
2025-11-05T18:18:32-05:00,5.5,ModeFlight.Ready,91,0.0,0.0,21.8,300.0,-68400.0,68400.658,0,0,116,1.796,-2.308,-0.052,0,0,98,white,white,38.13
2025-11-05T18:18:32-05:00,6.0,ModeFlight.Ready,91,0.0,0.0,21.8,-68400.0,-68400.0,96732.208,0,0,116,1.797,-2.31,-0.046,0,0,98,white,white,38.14
2025-11-05T18:18:33-05:00,6.5,ModeFlight.Ready,91,0.0,0.0,21.8,-68400.0,-68400.0,96732.208,0,0,116,1.797,-2.309,-0.023,0,0,98,white,white,38.14
2025-11-05T18:18:33-05:00,7.0,ModeFlight.Ready,91,0.0,0.0,21.6,-68400.0,-63600.0,93399.786,0,0,116,1.792,-2.303,-0.011,0,0,98,white,white,38.14
2025-11-05T18:18:34-05:00,7.5,ModeFlight.Ready,91,0.0,0.0,22.3,-100.0,-36400.0,36400.137,0,0,116,1.796,-2.312,0.002,0,0,97,white,white,38.14
2025-11-05T18:18:34-05:00,8.0,ModeFlight.Ready,91,0.0,0.0,22.3,-100.0,-18400.0,18400.272,0,0,116,1.798,-2.311,0.002,0,0,98,white,white,38.14
2025-11-05T18:18:35-05:00,8.5,ModeFlight.Ready,91,0.0,0.0,22.5,-1000.0,-18400.0,18427.154,0,0,116,1.798,-2.311,0.002,0,0,98,white,white,38.14
2025-11-05T18:18:35-05:00,9.0,ModeFlight.Ready,91,0.0,0.0,22.5,-1000.0,-18400.0,18427.154,0,0,116,1.797,-2.309,0.033,0,0,98,white,white,38.16
2025-11-05T18:18:36-05:00,9.5,ModeFlight.Ready,91,0.0,0.0,14.8,-1000.0,-18400.0,18427.154,0,0,116,1.794,-2.316,0.01,0,0,98,white,white,38.17
2025-11-05T18:18:36-05:00,10.0,ModeFlight.Ready,91,0.0,0.0,14.4,100.0,-27400.0,27400.182,0,0,116,1.794,-2.316,0.01,0,0,98,white,white,38.17
2025-11-05T18:18:37-05:00,10.5,ModeFlight.Ready,91,0.0,0.0,14.4,100.0,-27400.0,27400.182,0,0,116,1.794,-2.316,0.01,0,0,98,white,white,38.17
2025-11-05T18:18:37-05:00,11.0,ModeFlight.Ready,91,0.0,0.0,14.4,-200.0,55600.0,55600.36,0,0,116,1.794,-2.316,0.01,0,0,97,white,white,38.17
2025-11-05T18:18:38-05:00,11.5,ModeFlight.Ready,91,0.0,0.0,14.2,-200.0,55600.0,55600.36,0,0,116,1.794,-2.309,-0.249,0,0,97,white,white,38.17
2025-11-05T18:18:38-05:00,12.0,ModeFlight.Ready,91,0.0,0.0,12.6,-200.0,55600.0,55600.36,0,0,116,1.32,-2.714,1.627,0,0,96,white,black,38.17
2025-11-05T18:18:39-05:00,12.5,ModeFlight.Ready,91,0.0,3.7,11.7,-200.0,55600.0,55600.36,0,0,116,1.268,-2.482,0.737,-2,11,96,black,black,38.17
2025-11-05T18:18:39-05:00,13.016,ModeFlight.Ready,91,3.7,3.7,11.7,-200.0,55600.0,55600.36,0,0,108,1.725,-2.511,0.737,1,-5,98,black,black,38.17
2025-11-05T18:18:40-05:00,13.5,ModeFlight.Ready,91,3.7,3.7,11.7,0.0,15000.0,15000.0,0,0,108,1.725,-2.511,0.737,0,0,97,black,black,38.17
2025-11-05T18:18:40-05:00,14.0,ModeFlight.Ready,91,0.0,0.0,16.3,0.0,15000.0,15000.0,0,0,108,1.725,-2.646,2.124,0,0,97,black,black,38.17
2025-11-05T18:18:41-05:00,14.5,ModeFlight.Ready,91,0.0,0.0,15.6,0.0,15000.0,15000.0,0,0,108,1.655,-2.648,2.124,0,0,97,black,blue,38.17
2025-11-05T18:18:41-05:00,15.0,ModeFlight.Ready,91,0.0,0.0,12.9,0.0,15000.0,15000.0,0,0,108,1.655,-2.648,-0.143,0,0,98,blue,blue,38.17
2025-11-05T18:18:42-05:00,15.5,ModeFlight.Ready,91,0.0,0.0,11.5,0.0,-56200.0,56200.0,0,0,108,1.642,-2.655,-0.143,0,1,98,blue,blue,38.17
2025-11-05T18:18:42-05:00,16.0,ModeFlight.Ready,91,0.0,0.0,11.8,-200.0,-56200.0,56200.356,0,0,108,1.642,-2.655,-0.163,0,1,98,blue,blue,38.17
2025-11-05T18:18:43-05:00,16.5,ModeFlight.Ready,91,0.0,0.0,11.8,-200.0,-68400.0,68400.292,0,0,108,1.66,-2.98,2.46,0,1,93,blue,blue,38.15
2025-11-05T18:18:43-05:00,17.0,ModeFlight.Ready,91,0.0,0.0,11.7,-68400.0,-68400.0,96732.208,-5,1,110,1.647,-3.075,2.46,-8,-19,108,blue,black,38.17
2025-11-05T18:18:44-05:00,17.5,ModeFlight.Ready,91,0.0,0.0,11.7,-68400.0,-68400.0,96732.208,1,1,120,1.647,-3.075,2.46,0,1,97,light blue,light blue,38.17
2025-11-05T18:18:44-05:00,18.0,ModeFlight.Ready,91,0.0,0.0,12.8,-68400.0,-68400.0,96732.208,0,0,120,1.638,-2.653,0.172,0,0,98,light blue,light blue,38.17
2025-11-05T18:18:45-05:00,18.5,ModeFlight.Ready,91,0.0,0.0,14.8,-700.0,-7600.0,7632.169,0,0,120,1.666,-2.651,1.341,0,0,98,light blue,light blue,38.17
2025-11-05T18:18:45-05:00,19.0,ModeFlight.Ready,91,0.0,0.0,14.5,-700.0,-7600.0,7632.169,0,0,120,1.666,-2.651,1.046,0,0,97,light blue,light blue,38.17
2025-11-05T18:18:46-05:00,19.5,ModeFlight.Ready,91,0.0,0.0,14.5,900.0,-3300.0,3420.526,0,0,120,1.671,-2.635,0.488,0,0,97,light blue,light blue,38.17
2025-11-05T18:18:46-05:00,20.0,ModeFlight.Ready,91,0.0,0.0,14.5,900.0,-3300.0,3420.526,0,0,120,1.67,-2.635,0.488,0,0,98,light blue,light blue,38.17
2025-11-05T18:18:47-05:00,20.5,ModeFlight.Ready,91,0.0,0.0,14.5,900.0,-3300.0,3420.526,0,0,119,1.666,-2.644,-0.366,0,0,98,light blue,light blue,38.17
2025-11-05T18:18:47-05:00,21.0,ModeFlight.Ready,91,0.0,0.0,14.5,900.0,-3300.0,3420.526,0,0,119,1.656,-2.655,-0.435,0,7,97,light blue,light blue,38.17
2025-11-05T18:18:48-05:00,21.5,ModeFlight.Ready,91,0.0,0.0,14.5,900.0,-31100.0,31113.02,0,-2,117,1.812,-2.861,1.185,-7,-14,111,light blue,light blue,38.17
2025-11-05T18:18:48-05:00,22.0,ModeFlight.Ready,91,0.0,0.0,14.5,-82500.0,-44700.0,93831.445,1,0,123,1.909,-2.821,0.3,0,-16,111,light blue,light blue,38.17
2025-11-05T18:18:49-05:00,22.5,ModeFlight.Ready,91,0.0,0.0,14.3,-68400.0,-44700.0,81710.77,1,0,128,1.157,-2.71,-2.77,11,3,92,light blue,light blue,38.17
2025-11-05T18:18:49-05:00,23.0,ModeFlight.Ready,91,0.0,0.0,14.3,0.0,-68400.0,68400.0,0,-1,128,1.823,-2.71,-2.77,3,1,98,light blue,yellow,38.22
2025-11-05T18:18:50-05:00,23.5,ModeFlight.Ready,91,0.0,0.0,28.6,2100.0,-124400.0,124417.724,0,0,128,1.823,-2.71,0.392,0,-1,100,yellow,yellow,38.22
2025-11-05T18:18:50-05:00,24.0,ModeFlight.Ready,91,2.2,2.2,9.7,-300.0,50900.0,50900.884,0,0,128,1.638,-2.645,0.392,0,-1,100,yellow,yellow,38.23
2025-11-05T18:18:51-05:00,24.5,ModeFlight.Ready,91,2.5,0.0,28.8,-300.0,50900.0,50900.884,0,0,128,1.638,-2.645,0.392,0,0,98,yellow,yellow,38.23
2025-11-05T18:18:51-05:00,25.0,ModeFlight.Ready,91,0.0,0.0,27.8,-300.0,50900.0,50900.884,0,0,128,1.638,-2.645,1.043,0,0,98,yellow,yellow,38.23
2025-11-05T18:18:52-05:00,25.5,ModeFlight.Ready,91,0.0,0.0,25.7,-300.0,50900.0,50900.884,0,0,129,1.642,-2.673,1.043,-1,5,100,yellow,yellow,38.2
2025-11-05T18:18:52-05:00,26.0,ModeFlight.Ready,91,0.0,0.0,25.0,-300.0,50900.0,50900.884,0,0,129,1.642,-2.673,1.873,-1,5,100,black,black,38.2
2025-11-05T18:18:53-05:00,26.5,ModeFlight.Ready,91,0.0,0.0,21.9,-57400.0,47500.0,74505.1,0,0,129,1.979,-1.774,-0.95,-1,5,100,black,black,38.2
2025-11-05T18:18:53-05:00,27.0,ModeFlight.Ready,91,0.0,0.0,21.9,-57400.0,47500.0,74505.1,0,0,129,1.543,-3.327,-3.551,-1,5,99,black,black,38.2
2025-11-05T18:18:54-05:00,27.5,ModeFlight.Ready,91,0.0,0.0,21.9,8800.0,44100.0,44969.434,0,-1,114,1.543,-3.327,-3.551,0,0,98,black,black,38.22
2025-11-05T18:18:54-05:00,28.0,ModeFlight.Ready,91,0.0,0.0,35.6,8800.0,44100.0,44969.434,0,0,114,1.543,-3.327,-3.551,0,0,98,black,black,38.24
2025-11-05T18:18:55-05:00,28.5,ModeFlight.Ready,91,0.0,0.0,35.6,8800.0,44100.0,44969.434,0,0,114,1.637,-2.648,0.704,0,0,98,black,black,38.24
2025-11-05T18:18:55-05:00,29.0,ModeFlight.Ready,91,0.0,0.0,34.2,8800.0,44100.0,44969.434,0,0,114,1.632,-2.679,0.737,0,0,98,black,black,38.24
2025-11-05T18:18:56-05:00,29.5,ModeFlight.Ready,91,0.0,0.0,34.2,8800.0,44100.0,44969.434,0,0,114,1.632,-2.679,0.737,0,0,98,black,black,38.27
2025-11-05T18:18:56-05:00,30.0,ModeFlight.Ready,91,0.0,0.0,34.2,8800.0,-39700.0,40663.62,-3,2,113,1.429,-2.204,3.14,12,0,83,black,black,38.27
2025-11-05T18:18:57-05:00,30.5,ModeFlight.Ready,91,0.0,0.0,18.1,-7200.0,-39700.0,40347.615,-3,2,113,1.456,-2.767,-2.096,12,0,83,black,black,38.27
2025-11-05T18:18:57-05:00,31.0,ModeFlight.Ready,91,0.0,0.0,34.1,-7200.0,-57000.0,57452.937,-3,2,113,1.621,-2.737,-0.787,12,0,83,black,black,38.27
2025-11-05T18:18:58-05:00,31.5,ModeFlight.Ready,91,0.0,0.0,34.1,-68400.0,-57000.0,89036.846,-3,2,113,1.639,-2.678,-0.007,12,0,98,black,black,38.27
2025-11-05T18:18:58-05:00,32.0,ModeFlight.Ready,91,0.0,0.0,35.0,-68400.0,-68400.0,96732.208,0,0,112,1.637,-2.678,-0.007,0,0,97,black,white,38.3
2025-11-05T18:18:59-05:00,32.516,ModeFlight.Ready,91,0.0,0.0,34.9,0.0,-98300.0,98300.0,0,0,112,1.637,-2.678,-0.007,0,0,98,white,white,38.3
2025-11-05T18:18:59-05:00,33.0,ModeFlight.Ready,91,0.0,0.0,35.0,0.0,-98300.0,98300.0,0,0,112,1.637,-2.67,0.128,0,0,97,white,white,38.3
2025-11-05T18:19:00-05:00,33.5,ModeFlight.Ready,91,0.0,0.0,35.0,0.0,-98300.0,98300.0,0,0,112,1.633,-2.67,0.128,0,0,98,white,white,38.31
2025-11-05T18:19:00-05:00,34.0,ModeFlight.Ready,91,0.0,0.0,35.0,0.0,-95300.0,95300.0,0,0,112,1.632,-2.671,-0.184,0,0,98,white,white,38.31
2025-11-05T18:19:01-05:00,34.5,ModeFlight.Ready,91,0.0,0.0,35.0,0.0,-95300.0,95300.0,0,0,112,1.634,-2.672,-0.218,0,0,98,white,white,38.32
2025-11-05T18:19:01-05:00,35.0,ModeFlight.Ready,91,0.0,0.0,35.0,0.0,-95300.0,95300.0,0,0,112,1.634,-2.672,-0.218,0,0,97,white,white,38.33
2025-11-05T18:19:02-05:00,35.5,ModeFlight.Ready,91,0.0,0.0,52.0,0.0,-95300.0,95300.0,0,0,112,1.634,-2.669,-0.139,0,0,98,white,white,38.33
2025-11-05T18:19:02-05:00,36.0,ModeFlight.Ready,91,0.0,0.0,51.8,0.0,-95300.0,95300.0,0,0,112,1.631,-2.674,-0.062,0,0,98,white,white,38.33
2025-11-05T18:19:03-05:00,36.5,ModeFlight.Ready,91,0.0,0.0,52.6,-44900.0,5600.0,45247.873,0,0,112,1.631,-2.674,-0.062,0,0,97,white,white,38.33
2025-11-05T18:19:03-05:00,37.0,ModeFlight.Ready,91,0.0,0.0,52.6,-44900.0,5600.0,45247.873,0,0,112,1.631,-2.674,-0.062,0,0,98,white,white,38.33
2025-11-05T18:19:04-05:00,37.5,ModeFlight.Ready,91,0.0,0.0,52.6,-44900.0,5600.0,45247.873,0,0,112,1.631,-2.674,-0.062,0,0,98,white,white,38.33
2025-11-05T18:19:04-05:00,38.0,ModeFlight.Ready,91,0.0,0.0,53.2,-44900.0,5600.0,45247.873,0,0,112,1.636,-2.671,0.03,0,0,98,white,white,38.36
2025-11-05T18:19:05-05:00,38.5,ModeFlight.Ready,91,0.0,0.0,53.2,-44900.0,5600.0,45247.873,0,0,112,1.636,-2.671,0.03,0,0,98,white,white,38.37
2025-11-05T18:19:05-05:00,39.0,ModeFlight.Ready,91,0.0,0.0,53.7,-800.0,-57000.0,57005.614,0,0,112,1.636,-2.671,-0.002,0,0,97,white,white,38.37
2025-11-05T18:19:06-05:00,39.5,ModeFlight.Ready,91,0.0,0.0,53.9,-800.0,-57000.0,57005.614,0,0,112,1.634,-2.669,0.005,0,0,97,white,white,38.37
2025-11-05T18:19:06-05:00,40.016,ModeFlight.Ready,91,0.0,0.0,53.9,-800.0,-57000.0,57005.614,0,0,112,1.634,-2.67,0.005,0,0,97,white,white,38.38
2025-11-05T18:19:07-05:00,40.5,ModeFlight.Ready,91,0.0,0.0,53.9,-800.0,-57000.0,57005.614,0,0,112,1.634,-2.67,-0.002,0,0,98,white,white,38.38
2025-11-05T18:19:07-05:00,41.0,ModeFlight.Ready,91,0.0,0.0,53.7,-68400.0,-68400.0,96732.208,0,0,112,1.635,-2.671,-0.002,0,0,98,white,white,38.39
2025-11-05T18:19:08-05:00,41.5,ModeFlight.Ready,91,0.0,0.0,53.7,-200.0,-53000.0,53000.377,0,0,0,1.635,-2.671,-0.002,-1,-7,99,white,white,38.38
2025-11-05T18:19:08-05:00,42.0,ModeFlight.Ready,91,0.0,0.0,53.7,-200.0,-53000.0,53000.377,0,0,0,-0.061,-0.071,2.605,0,-1,96,white,white,38.38
2025-11-05T18:19:09-05:00,42.5,ModeFlight.Ready,91,0.0,0.0,53.7,-200.0,-53000.0,53000.377,0,0,0,-0.061,-0.071,2.605,8,-3,98,white,white,38.27
2025-11-05T18:19:09-05:00,43.0,ModeFlight.Ready,83,2.5,2.5,45.2,1100.0,-41700.0,41714.506,0,0,0,-0.061,-0.141,2.92,8,-3,91,white,white,38.27
2025-11-05T18:19:10-05:00,43.5,ModeFlight.TakeOff,83,2.5,2.5,45.2,1100.0,-41700.0,41714.506,0,0,0,-0.072,-0.197,7.294,0,5,111,white,white,38.27
2025-11-05T18:19:10-05:00,44.0,ModeFlight.TakeOff,78,2.5,2.5,45.2,1100.0,-41700.0,41714.506,0,0,0,-0.072,-0.257,28.17,0,5,111,white,white,38.27
2025-11-05T18:19:11-05:00,44.5,ModeFlight.Flight,77,2.5,2.5,51.5,1100.0,-41700.0,41714.506,0,0,0,0.994,-0.258,28.17,0,5,111,white,white,38.27
2025-11-05T18:19:11-05:00,45.0,ModeFlight.Flight,77,63.4,63.4,51.5,1100.0,-41700.0,41714.506,0,0,0,0.994,-0.258,28.17,0,5,111,white,white,38.27
2025-11-05T18:19:12-05:00,45.5,ModeFlight.Flight,77,63.4,999.9,999.9,1100.0,-41700.0,41714.506,0,0,0,0.994,-22.342,89.882,0,0,94,white,white,37.97
2025-11-05T18:19:12-05:00,46.0,ModeFlight.Flight,78,999.9,999.9,999.9,1100.0,-41700.0,41714.506,0,17,0,72.322,-30.736,92.774,-13,10,95,white,white,37.97
2025-11-05T18:19:13-05:00,46.5,ModeFlight.Flight,78,999.9,999.9,999.9,1100.0,-41700.0,41714.506,0,-17,-2,72.322,-30.736,92.774,-4,-2,99,white,white,37.97
2025-11-05T18:19:13-05:00,47.0,ModeFlight.Flight,78,999.9,999.9,999.9,-1800.0,36600.0,36644.236,11,0,-1,72.322,-30.736,84.095,1,4,111,white,white,37.97
2025-11-05T18:19:14-05:00,47.5,ModeFlight.Flight,73,999.9,999.9,999.9,23600.0,-15700.0,28345.194,13,0,0,48.02,-56.356,84.02,1,-5,86,white,white,37.97
2025-11-05T18:19:14-05:00,48.0,ModeFlight.Flight,70,999.9,999.9,999.9,13900.0,-7800.0,15938.946,0,1,-2,53.304,-75.917,85.915,-2,-5,86,white,white,37.97
2025-11-05T18:19:15-05:00,48.5,ModeFlight.Flight,70,999.9,999.9,999.9,3600.0,-7800.0,8590.693,0,1,-2,59.351,-75.917,85.915,-2,0,115,white,white,37.97
2025-11-05T18:19:15-05:00,49.0,ModeFlight.Flight,70,999.9,999.9,999.9,11300.0,-8400.0,14080.128,0,8,12,66.373,-95.566,104.702,-6,2,87,white,white,37.97
2025-11-05T18:19:16-05:00,49.5,ModeFlight.Flight,66,999.9,999.9,999.9,-200.0,0.0,200.0,0,4,12,75.807,-100.459,106.493,-12,8,87,white,white,37.97
2025-11-05T18:19:16-05:00,50.0,ModeFlight.Flight,66,999.9,999.9,999.9,-200.0,0.0,200.0,0,4,12,76.316,-107.815,125.029,-12,0,83,white,white,37.97
2025-11-05T18:19:17-05:00,50.5,ModeFlight.Flight,64,999.9,999.9,999.9,-200.0,0.0,200.0,0,0,12,88.393,-107.815,120.442,0,0,83,white,white,37.97
2025-11-05T18:19:17-05:00,51.0,ModeFlight.Flight,64,999.9,999.9,999.9,-100.0,-7600.0,7600.658,0,0,12,103.972,-116.98,120.442,0,0,83,white,white,37.97
2025-11-05T18:19:18-05:00,51.5,ModeFlight.Flight,64,999.9,999.9,999.9,7800.0,-6400.0,10089.599,0,0,82,103.972,-116.98,116.717,0,-2,96,white,white,37.97
2025-11-05T18:19:18-05:00,52.016,ModeFlight.Flight,64,999.9,999.9,999.9,7800.0,-6400.0,10089.599,0,-1,49,129.562,-115.559,116.717,-4,7,101,white,white,37.97
2025-11-05T18:19:19-05:00,52.5,ModeFlight.Flight,62,999.9,999.9,999.9,7800.0,-6400.0,10089.599,0,-1,49,129.562,-115.559,116.717,-4,7,101,white,white,37.91
2025-11-05T18:19:19-05:00,53.0,ModeFlight.Flight,62,999.9,999.9,999.9,7800.0,-29300.0,30320.455,0,-1,49,129.562,-115.559,116.717,-4,10,118,white,white,37.91
2025-11-05T18:19:20-05:00,53.5,ModeFlight.Flight,62,999.9,999.9,999.9,-3300.0,-8700.0,9304.837,-1,-9,43,129.562,-115.559,116.717,-14,10,118,white,white,37.91
2025-11-05T18:19:20-05:00,54.0,ModeFlight.Flight,60,999.9,999.9,93.4,-3300.0,-8700.0,9304.837,-1,-9,21,129.562,-115.559,116.717,3,-1,99,white,white,37.91
2025-11-05T18:19:21-05:00,54.5,ModeFlight.Flight,60,999.9,59.6,70.5,500.0,-7200.0,7217.34,0,0,21,217.443,-123.401,38.215,-3,-1,99,white,white,37.91
2025-11-05T18:19:21-05:00,55.0,ModeFlight.Flight,58,59.6,59.6,70.5,500.0,-7200.0,7217.34,0,0,21,217.429,-123.619,38.215,-3,5,117,white,white,37.91
2025-11-05T18:19:22-05:00,55.5,ModeFlight.Flight,59,69.3,69.3,76.4,-2100.0,-13400.0,13563.554,0,0,-5,217.429,-123.619,38.215,-1,5,117,white,white,37.91
2025-11-05T18:19:22-05:00,56.0,ModeFlight.Flight,59,74.8,74.8,76.4,-2100.0,-13400.0,13563.554,0,0,-4,203.522,-174.505,52.283,-1,-7,106,white,white,37.91
2025-11-05T18:19:23-05:00,56.5,ModeFlight.Flight,59,74.8,74.8,76.4,-3200.0,-10900.0,11360.018,0,0,-4,203.076,-175.268,52.283,0,-7,106,white,white,37.91
2025-11-05T18:19:23-05:00,57.0,ModeFlight.Flight,59,74.8,74.8,76.4,-3200.0,-10900.0,11360.018,0,0,12,203.076,-175.268,52.283,1,2,100,white,white,37.91
2025-11-05T18:19:24-05:00,57.5,ModeFlight.Flight,59,74.8,74.8,76.4,-3200.0,-10900.0,11360.018,0,0,45,203.076,-175.268,72.075,0,-3,95,white,white,37.91
2025-11-05T18:19:24-05:00,58.0,ModeFlight.Flight,59,74.8,74.8,76.4,-3200.0,-10900.0,11360.018,1,1,104,180.329,-214.13,52.896,-10,0,96,white,white,38.02
2025-11-05T18:19:25-05:00,58.5,ModeFlight.Flight,59,74.8,74.8,999.9,-3200.0,-10900.0,11360.018,0,1,156,180.332,-214.13,52.896,1,-2,97,white,white,38.02
2025-11-05T18:19:25-05:00,59.0,ModeFlight.Flight,55,63.9,101.3,999.9,1100.0,-16700.0,16736.188,0,1,156,180.332,-204.827,62.919,1,-2,97,white,white,38.02
2025-11-05T18:19:26-05:00,59.5,ModeFlight.Flight,55,101.3,73.3,999.9,1100.0,-19500.0,19531.001,0,1,156,187.709,-204.238,62.919,1,-2,97,white,white,38.02
2025-11-05T18:19:26-05:00,60.0,ModeFlight.Flight,55,72.9,72.9,999.9,-44300.0,-19500.0,48401.859,0,1,156,187.709,-204.238,62.919,1,-2,97,white,white,38.02
2025-11-05T18:19:27-05:00,60.5,ModeFlight.Flight,54,72.9,72.9,999.9,-44300.0,-19500.0,48401.859,0,1,156,187.709,-204.238,62.919,1,-2,87,white,white,38.02
2025-11-05T18:19:27-05:00,61.0,ModeFlight.Flight,54,72.9,72.9,999.9,-44300.0,-19500.0,48401.859,0,0,179,187.709,-204.238,62.919,3,1,87,white,white,38.02
2025-11-05T18:19:28-05:00,61.5,ModeFlight.Flight,54,72.9,72.9,999.9,-44300.0,-10200.0,45459.102,0,0,144,187.709,-204.238,62.919,-4,0,94,white,white,38.02
2025-11-05T18:19:28-05:00,62.0,ModeFlight.Flight,54,72.9,72.9,999.9,6200.0,-7400.0,9654.015,0,0,136,187.709,-204.238,62.919,-8,0,100,white,white,38.02
2025-11-05T18:19:29-05:00,62.5,ModeFlight.Flight,53,72.9,72.9,999.9,6200.0,-7400.0,9654.015,0,0,136,210.711,-67.083,11.546,-2,0,100,white,white,38.16
2025-11-05T18:19:29-05:00,63.0,ModeFlight.Flight,53,11.4,11.4,999.9,6200.0,53100.0,53460.733,0,0,136,210.711,-67.083,11.546,-1,-5,117,white,white,38.16
2025-11-05T18:19:30-05:00,63.5,ModeFlight.Flight,53,11.4,11.4,999.9,42600.0,53100.0,68076.207,-19,0,125,210.711,-67.083,11.546,-2,-14,102,white,white,38.16
2025-11-05T18:19:30-05:00,64.0,ModeFlight.Flight,53,11.4,999.9,999.9,0.0,7900.0,7900.0,2,0,142,210.711,-67.083,11.546,-4,-1,95,white,white,38.23
2025-11-05T18:19:31-05:00,64.5,ModeFlight.Flight,53,999.9,999.9,999.9,0.0,7900.0,7900.0,2,0,170,210.711,-67.083,11.546,0,-6,94,white,white,38.27
2025-11-05T18:19:31-05:00,65.0,ModeFlight.Flight,53,999.9,999.9,999.9,0.0,-600.0,600.0,2,0,171,210.711,-67.083,11.546,0,-3,81,white,white,38.27
2025-11-05T18:19:32-05:00,65.5,ModeFlight.Flight,53,999.9,999.9,999.9,2100.0,-600.0,2184.033,1,0,171,210.711,-67.083,11.546,-5,-2,108,white,white,38.27
2025-11-05T18:19:32-05:00,66.0,ModeFlight.Flight,53,999.9,999.9,999.9,1800.0,-2600.0,3162.278,1,0,171,210.711,-67.083,11.546,-5,-2,108,white,white,38.27
2025-11-05T18:19:33-05:00,66.5,ModeFlight.Flight,53,999.9,999.9,999.9,-2700.0,-5800.0,6397.656,1,0,171,167.669,-79.82,62.889,-5,-2,102,white,white,38.29
2025-11-05T18:19:33-05:00,67.0,ModeFlight.Flight,51,999.9,999.9,999.9,-2700.0,-5800.0,6397.656,0,20,167,167.669,-79.82,62.889,-16,0,109,white,white,38.3
2025-11-05T18:19:34-05:00,67.5,ModeFlight.Flight,52,999.9,999.9,999.9,-2700.0,-5800.0,6397.656,0,0,166,167.669,-64.226,66.344,-11,0,109,white,white,38.3
2025-11-05T18:19:34-05:00,68.0,ModeFlight.Flight,52,999.9,999.9,999.9,-2700.0,-6600.0,7130.919,0,-2,166,150.252,-64.079,60.037,-1,-5,98,white,white,38.3
2025-11-05T18:19:35-05:00,68.5,ModeFlight.Flight,52,999.9,999.9,999.9,-800.0,-6600.0,6648.308,0,-2,166,144.714,-57.909,60.037,0,-2,94,white,white,38.3
2025-11-05T18:19:35-05:00,69.0,ModeFlight.Flight,52,999.9,999.9,999.9,-800.0,-200.0,824.621,0,0,164,144.714,-57.909,60.037,-2,1,94,white,white,38.32
2025-11-05T18:19:36-05:00,69.5,ModeFlight.Flight,52,999.9,999.9,999.9,24000.0,-200.0,24000.833,0,0,164,162.261,-50.125,59.954,-2,1,94,white,white,38.32
2025-11-05T18:19:36-05:00,70.0,ModeFlight.Flight,51,999.9,999.9,999.9,24000.0,-200.0,24000.833,0,0,164,160.99,-57.292,57.831,-2,-6,89,white,white,38.32
2025-11-05T18:19:37-05:00,70.5,ModeFlight.Flight,51,999.9,999.9,999.9,31500.0,9000.0,32760.495,2,-9,-158,160.99,-57.292,57.831,1,-5,98,white,white,38.32
2025-11-05T18:19:37-05:00,71.0,ModeFlight.Flight,51,999.9,999.9,999.9,31500.0,9000.0,32760.495,3,-11,-158,179.056,-69.861,37.481,1,-5,98,white,white,38.32
2025-11-05T18:19:38-05:00,71.5,ModeFlight.Flight,51,999.9,999.9,999.9,31500.0,-8300.0,32575.144,3,-11,-158,179.708,-69.861,37.481,2,6,102,white,white,38.32
2025-11-05T18:19:38-05:00,72.0,ModeFlight.Flight,51,999.9,999.9,999.9,-33900.0,-8300.0,34901.289,1,2,173,179.708,-69.861,37.481,9,8,108,white,white,38.32
2025-11-05T18:19:39-05:00,72.5,ModeFlight.Flight,51,999.9,999.9,999.9,-33900.0,-8300.0,34901.289,0,-9,140,179.708,-69.861,37.481,-2,4,88,white,white,38.32
2025-11-05T18:19:39-05:00,73.0,ModeFlight.Flight,50,999.9,999.9,206.2,-33900.0,-8300.0,34901.289,0,-9,136,216.041,-53.902,43.209,3,11,88,white,white,38.32
2025-11-05T18:19:40-05:00,73.5,ModeFlight.Flight,50,999.9,999.9,206.2,-33900.0,-62100.0,70750.406,0,2,80,216.53,-53.924,43.209,2,-3,102,white,white,38.32
2025-11-05T18:19:40-05:00,74.0,ModeFlight.Flight,50,999.9,999.9,206.2,-500.0,-62100.0,62102.013,0,0,55,216.53,-53.924,43.209,10,0,99,white,white,38.32
2025-11-05T18:19:41-05:00,74.5,ModeFlight.Flight,50,5.8,5.8,999.9,-61500.0,-68400.0,91982.661,-26,-9,80,216.53,-53.924,43.209,1,-4,99,white,white,38.35
2025-11-05T18:19:41-05:00,75.0,ModeFlight.Flight,50,5.8,5.8,999.9,-61500.0,14900.0,63279.222,-19,4,114,216.53,-53.924,43.209,-2,-3,101,white,white,38.35
2025-11-05T18:19:42-05:00,75.5,ModeFlight.Flight,50,5.8,43.2,999.9,15400.0,14900.0,21428.252,6,-4,101,216.53,-53.924,50.775,-4,-4,106,white,white,38.35
2025-11-05T18:19:42-05:00,76.0,ModeFlight.Flight,50,43.2,43.2,999.9,15400.0,14900.0,21428.252,2,-5,101,248.999,-59.429,50.775,-4,-4,106,white,white,38.35
2025-11-05T18:19:43-05:00,76.5,ModeFlight.Flight,50,43.2,43.2,999.9,15400.0,14900.0,21428.252,2,-5,101,248.999,-59.429,50.775,1,0,96,white,white,38.43
2025-11-05T18:19:43-05:00,77.0,ModeFlight.Flight,50,38.1,38.1,999.9,-77100.0,-7900.0,77503.677,1,0,104,248.999,-59.429,50.775,1,0,96,white,white,38.43
2025-11-05T18:19:44-05:00,77.5,ModeFlight.Flight,50,38.1,38.1,999.9,-77100.0,-7900.0,77503.677,1,0,105,266.654,-150.472,53.962,9,4,85,white,white,38.43
2025-11-05T18:19:44-05:00,78.0,ModeFlight.Flight,49,38.1,22.7,54.7,-77100.0,-7900.0,77503.677,0,-14,105,266.802,-144.251,0.373,12,4,85,white,white,38.43
2025-11-05T18:19:45-05:00,78.5,ModeFlight.Flight,49,0.0,0.0,9.2,-77100.0,-26800.0,81625.057,-39,-167,-1,263.703,-144.251,0.373,-109,138,-62,white,white,38.43
2025-11-05T18:19:45-05:00,79.0,ModeFlight.Flight,51,0.0,0.0,14.9,100.0,-400.0,412.311,-35,-179,-1,263.703,-144.251,0.373,-109,138,-62,white,black,38.43
2025-11-05T18:19:46-05:00,79.5,ModeFlight.Ready,54,0.0,0.0,14.8,-600.0,0.0,600.0,-35,-179,-1,263.703,-152.144,-35.149,-109,138,-62,black,black,38.43
2025-11-05T18:19:46-05:00,80.0,ModeFlight.Ready,55,0.0,0.0,14.8,-600.0,0.0,600.0,-35,-179,-1,264.828,-152.137,-35.149,-109,138,-62,black,black,38.43
2025-11-05T18:19:47-05:00,80.5,ModeFlight.Ready,56,0.0,0.0,15.4,800.0,-700.0,1063.015,-35,-179,-1,264.828,-152.137,-35.149,-109,138,-62,black,black,38.43
2025-11-05T18:19:47-05:00,81.0,ModeFlight.Ready,57,0.0,0.0,15.4,-400.0,-700.0,806.226,-35,-179,-1,264.828,-152.137,-35.149,-109,2,-100,black,black,38.67
2025-11-05T18:19:48-05:00,81.5,ModeFlight.Ready,57,0.0,0.0,15.4,-400.0,-700.0,806.226,1,-174,-3,264.934,-152.195,6.529,2,2,-100,black,black,38.67
2025-11-05T18:19:48-05:00,82.0,ModeFlight.Ready,59,0.0,0.0,15.4,-400.0,-700.0,806.226,1,-174,-3,264.953,-152.176,17.115,2,2,-100,black,black,38.67
