ts_iso,elapsed_s,state,battery_percent,height_cm,flow_vx_cms,flow_vy_cms,speed_cms,angle_roll_deg,angle_pitch_deg,angle_yaw_deg,accel_x,accel_y,accel_z,colors,temp_c
2025-10-29T19:50:09-04:00,0.0,ModeFlight.Ready,75,0.0,29000.0,900.0,29013.962,0,0,53,-3,14,101,"['Unknown', 'Unknown']",46.39
2025-10-29T19:50:10-04:00,0.5,ModeFlight.Ready,75,5.9,29000.0,900.0,29013.962,4,-1,53,-3,14,101,"['black', 'black']",46.39
2025-10-29T19:50:10-04:00,1.0,ModeFlight.Ready,75,6.3,-12900.0,-22800.0,26196.374,4,-1,53,-3,14,101,"['black', 'black']",46.4
2025-10-29T19:50:11-04:00,1.5,ModeFlight.Ready,75,6.3,-12900.0,-22800.0,26196.374,4,-5,43,1,21,101,"['black', 'black']",46.4
2025-10-29T19:50:11-04:00,2.0,ModeFlight.Ready,75,5.9,7000.0,-2400.0,7400.0,4,-5,43,1,21,94,"['black', 'black']",46.4
2025-10-29T19:50:12-04:00,2.515,ModeFlight.Ready,75,5.9,7000.0,-2400.0,7400.0,7,-2,38,-1,21,127,"['black', 'black']",46.4
2025-10-29T19:50:12-04:00,3.0,ModeFlight.Ready,75,9.1,-24500.0,-20300.0,31817.291,6,1,40,-11,35,127,"['black', 'black']",46.41
2025-10-29T19:50:13-04:00,3.5,ModeFlight.Ready,75,6.6,-1900.0,-900.0,2102.38,6,1,40,-11,35,98,"['black', 'black']",46.41
2025-10-29T19:50:13-04:00,4.0,ModeFlight.Ready,75,7.3,-1900.0,1600.0,2483.948,3,1,50,0,6,97,"['black', 'black']",46.41
2025-10-29T19:50:14-04:00,4.5,ModeFlight.Ready,75,7.3,2700.0,1600.0,3138.471,3,2,49,-3,10,100,"['black', 'black']",46.43
2025-10-29T19:50:14-04:00,5.015,ModeFlight.Ready,75,7.3,2700.0,1600.0,3138.471,2,2,49,0,16,99,"['black', 'black']",46.43
2025-10-29T19:50:15-04:00,5.5,ModeFlight.Ready,75,7.3,2700.0,5300.0,5948.109,4,0,56,2,3,98,"['black', 'black']",46.43
2025-10-29T19:50:15-04:00,6.0,ModeFlight.Ready,75,7.3,-7000.0,-5500.0,8902.247,1,-1,58,0,6,99,"['black', 'black']",46.43
2025-10-29T19:50:16-04:00,6.5,ModeFlight.Ready,75,7.3,-1100.0,-5500.0,5608.921,1,-1,60,6,1,96,"['black', 'black']",46.43
2025-10-29T19:50:16-04:00,7.0,ModeFlight.Ready,75,1.9,-1100.0,-19700.0,19730.687,1,-2,60,6,1,98,"['black', 'black']",46.43
2025-10-29T19:50:17-04:00,7.5,ModeFlight.Ready,75,2.0,-2200.0,10300.0,10532.331,2,-1,61,5,1,95,"['black', 'black']",46.43
2025-10-29T19:50:17-04:00,8.0,ModeFlight.Ready,75,2.3,-2200.0,10300.0,10532.331,2,-1,61,-1,6,99,"['black', 'black']",46.43
2025-10-29T19:50:18-04:00,8.5,ModeFlight.Ready,75,2.3,-2200.0,10300.0,10532.331,2,-1,61,-4,10,94,"['black', 'black']",46.46
2025-10-29T19:50:18-04:00,9.0,ModeFlight.Ready,75,3.0,30500.0,22000.0,37606.515,4,1,60,-12,12,94,"['black', 'black']",46.46
2025-10-29T19:50:19-04:00,9.515,ModeFlight.Ready,75,3.0,31800.0,22000.0,38668.333,4,1,60,-12,12,94,"['black', 'black']",46.48
2025-10-29T19:50:19-04:00,10.0,ModeFlight.Ready,75,4.5,44000.0,15100.0,46518.921,4,1,60,-12,7,111,"['black', 'black']",46.49
2025-10-29T19:50:20-04:00,10.5,ModeFlight.Ready,75,4.5,44000.0,15100.0,46518.921,2,0,66,3,5,100,"['black', 'black']",46.5
2025-10-29T19:50:20-04:00,11.0,ModeFlight.Ready,75,4.5,44000.0,-8200.0,44757.569,2,0,67,0,7,100,"['black', 'black']",46.5
2025-10-29T19:50:21-04:00,11.5,ModeFlight.Ready,75,3.1,-4500.0,-8200.0,9353.609,2,0,67,0,1,94,"['black', 'black']",46.5
2025-10-29T19:50:21-04:00,12.0,ModeFlight.Ready,75,3.1,-4300.0,-4400.0,6152.235,2,0,67,0,6,97,"['black', 'black']",46.52
2025-10-29T19:50:22-04:00,12.5,ModeFlight.Ready,75,3.1,-4300.0,-4400.0,6152.235,2,0,68,3,4,95,"['black', 'black']",46.52
2025-10-29T19:50:22-04:00,13.0,ModeFlight.Ready,75,3.1,0.0,46300.0,46300.0,2,0,68,1,4,95,"['black', 'black']",46.53
2025-10-29T19:50:23-04:00,13.5,ModeFlight.Ready,75,1.6,300.0,58100.0,58100.775,2,0,68,1,4,95,"['black', 'black']",46.54
2025-10-29T19:50:23-04:00,14.0,ModeFlight.Ready,75,1.6,300.0,58100.0,58100.775,2,0,68,1,4,95,"['black', 'black']",46.54
2025-10-29T19:50:24-04:00,14.5,ModeFlight.Ready,75,14.8,200.0,300.0,360.555,2,0,46,-1,6,98,"['black', 'black']",46.54
2025-10-29T19:50:24-04:00,15.0,ModeFlight.Ready,75,14.8,-500.0,2000.0,2061.553,2,0,46,-1,6,98,"['black', 'black']",46.54
2025-10-29T19:50:25-04:00,15.5,ModeFlight.Ready,75,14.8,-3000.0,2000.0,3605.551,2,0,46,0,5,98,"['black', 'black']",46.54
2025-10-29T19:50:25-04:00,16.0,ModeFlight.Ready,75,12.0,-700.0,200.0,728.011,1,-1,47,4,2,105,"['black', 'black']",46.56
2025-10-29T19:50:26-04:00,16.5,ModeFlight.Ready,75,12.0,-700.0,200.0,728.011,1,-1,47,4,3,101,"['black', 'black']",46.56
2025-10-29T19:50:26-04:00,17.015,ModeFlight.Ready,75,12.0,-9700.0,-1400.0,9800.51,2,0,49,6,4,96,"['black', 'black']",46.56
2025-10-29T19:50:27-04:00,17.5,ModeFlight.Ready,75,12.0,-9700.0,-1400.0,9800.51,2,0,47,-5,3,101,"['black', 'black']",46.56
2025-10-29T19:50:27-04:00,18.0,ModeFlight.Ready,75,12.0,-9700.0,-3400.0,10278.619,0,3,46,19,-11,93,"['black', 'black']",46.56
2025-10-29T19:50:28-04:00,18.5,ModeFlight.Ready,75,12.0,-700.0,-300.0,761.577,0,2,49,-2,-4,89,"['black', 'black']",46.58
2025-10-29T19:50:28-04:00,19.0,ModeFlight.Ready,75,37.8,-200.0,-1000.0,1019.804,0,2,49,-2,-4,89,"['black', 'black']",46.58
2025-10-29T19:50:29-04:00,19.5,ModeFlight.Ready,75,38.5,4200.0,-200.0,4204.759,0,2,49,-2,-4,99,"['black', 'black']",46.58
2025-10-29T19:50:29-04:00,20.0,ModeFlight.Ready,75,38.5,4200.0,-200.0,4204.759,-1,2,55,-9,-1,99,"['black', 'black']",46.61
2025-10-29T19:50:30-04:00,20.5,ModeFlight.Ready,75,38.5,4200.0,-200.0,4204.759,-1,4,49,-3,-16,108,"['black', 'black']",46.61
2025-10-29T19:50:30-04:00,21.0,ModeFlight.Ready,75,17.5,4400.0,2000.0,4833.218,0,5,48,0,-16,108,"['black', 'black']",46.61
2025-10-29T19:50:31-04:00,21.5,ModeFlight.Ready,75,17.5,4400.0,2000.0,4833.218,0,5,48,0,0,102,"['black', 'black']",46.61
2025-10-29T19:50:31-04:00,22.0,ModeFlight.Ready,75,17.5,-300.0,-300.0,424.264,6,2,57,-3,0,102,"['black', 'black']",46.61
2025-10-29T19:50:32-04:00,22.5,ModeFlight.Ready,75,17.5,-300.0,-300.0,424.264,6,2,57,-5,3,98,"['black', 'black']",46.61
2025-10-29T19:50:32-04:00,23.0,ModeFlight.Ready,75,17.5,1000.0,6700.0,6774.216,0,1,65,-4,2,99,"['black', 'black']",46.62
2025-10-29T19:50:33-04:00,23.5,ModeFlight.Ready,75,17.5,1000.0,6700.0,6774.216,0,1,1,6,-7,96,"['black', 'black']",46.62
2025-10-29T19:50:33-04:00,24.0,ModeFlight.Ready,75,17.5,1000.0,6700.0,6774.216,-9,0,-10,-11,-7,105,"['black', 'black']",46.62
2025-10-29T19:50:34-04:00,24.5,ModeFlight.Ready,75,17.5,1000.0,6700.0,6774.216,-3,-2,-1,-4,-4,100,"['black', 'black']",46.62
2025-10-29T19:50:34-04:00,25.0,ModeFlight.Ready,75,17.5,900.0,18200.0,18222.239,0,0,-1,-4,-4,100,"['black', 'black']",46.65
2025-10-29T19:50:35-04:00,25.5,ModeFlight.Ready,75,6.3,-7200.0,-3600.0,8049.845,0,1,6,-9,1,79,"['black', 'black']",46.65
2025-10-29T19:50:35-04:00,26.0,ModeFlight.Ready,75,1.8,-5700.0,-3600.0,6741.662,0,1,6,-9,1,79,"['black', 'black']",46.65
2025-10-29T19:50:36-04:00,26.515,ModeFlight.Ready,75,1.8,200.0,52400.0,52400.382,0,0,2,4,6,97,"['black', 'black']",46.65
2025-10-29T19:50:36-04:00,27.0,ModeFlight.Ready,75,1.8,200.0,400.0,447.214,0,0,3,0,0,97,"['black', 'black']",46.65
2025-10-29T19:50:37-04:00,27.5,ModeFlight.Ready,75,3.5,-200.0,400.0,447.214,0,0,2,0,0,97,"['black', 'black']",46.69
2025-10-29T19:50:37-04:00,28.0,ModeFlight.Ready,75,27.1,-6100.0,1500.0,6281.72,0,0,2,0,0,98,"['black', 'black']",46.69
2025-10-29T19:50:38-04:00,28.5,ModeFlight.Ready,75,27.1,-1500.0,-400.0,1552.417,3,10,-3,-18,4,74,"['black', 'black']",46.69
2025-10-29T19:50:38-04:00,29.0,ModeFlight.Ready,75,27.1,2200.0,-4600.0,5099.02,7,4,-4,0,16,104,"['black', 'black']",46.69
2025-10-29T19:50:39-04:00,29.5,ModeFlight.Ready,75,10.1,2200.0,1700.0,2780.288,6,4,-4,0,13,85,"['black', 'black']",46.71
2025-10-29T19:50:39-04:00,30.0,ModeFlight.Ready,75,10.1,0.0,16700.0,16700.0,-1,-1,-96,9,-1,96,"['black', 'black']",46.71
2025-10-29T19:50:40-04:00,30.5,ModeFlight.Ready,75,10.1,-11800.0,16700.0,20448.227,-1,-1,-96,-3,3,96,"['black', 'black']",46.71
2025-10-29T19:50:40-04:00,31.0,ModeFlight.Ready,75,6.2,-6300.0,7400.0,9718.539,0,3,-91,-2,-1,100,"['black', 'black']",46.73
2025-10-29T19:50:41-04:00,31.5,ModeFlight.Ready,75,6.2,-6300.0,7400.0,9718.539,0,3,-52,-18,5,102,"['black', 'black']",46.74
2025-10-29T19:50:41-04:00,32.015,ModeFlight.Ready,75,6.2,-6300.0,7400.0,9718.539,-1,2,-52,-5,0,100,"['black', 'black']",46.74
2025-10-29T19:50:42-04:00,32.5,ModeFlight.Ready,75,6.2,-6300.0,7400.0,9718.539,0,0,-24,-5,0,100,"['black', 'black']",46.74
2025-10-29T19:50:42-04:00,33.015,ModeFlight.Ready,75,6.2,-6300.0,7400.0,9718.539,0,0,-32,61,-57,92,"['black', 'black']",46.74
2025-10-29T19:50:43-04:00,33.5,ModeFlight.Ready,75,6.2,14600.0,3200.0,14946.572,-35,-28,-32,61,-57,92,"['black', 'black']",46.74
2025-10-29T19:50:43-04:00,34.0,ModeFlight.Ready,75,999.9,15200.0,3200.0,15533.19,-35,-28,-32,61,-57,92,"['black', 'black']",46.74
2025-10-29T19:50:44-04:00,34.5,ModeFlight.Ready,75,999.9,15200.0,3200.0,15533.19,-35,-28,-56,-27,-45,100,"['black', 'black']",46.74
2025-10-29T19:50:44-04:00,35.0,ModeFlight.Ready,75,999.9,5300.0,7100.0,8860.023,-3,9,-77,3,1,90,"['black', 'black']",46.75
2025-10-29T19:50:45-04:00,35.515,ModeFlight.Ready,75,999.9,0.0,7100.0,7100.0,-1,1,-93,-1,-1,96,"['black', 'black']",46.75
2025-10-29T19:50:45-04:00,36.0,ModeFlight.Ready,75,1.2,-1000.0,-14500.0,14534.442,2,14,-95,-24,0,92,"['black', 'black']",46.77
2025-10-29T19:50:46-04:00,36.515,ModeFlight.Ready,75,1.2,0.0,-14500.0,14500.0,2,15,-95,-24,0,48,"['black', 'black']",46.77
2025-10-29T19:50:46-04:00,37.0,ModeFlight.Ready,75,1.2,0.0,-14500.0,14500.0,-8,76,-95,-92,-6,20,"['black', 'black']",46.77
2025-10-29T19:50:47-04:00,37.5,ModeFlight.Ready,75,1.2,-8300.0,4500.0,9441.398,-8,77,-96,-100,-6,15,"['black', 'black']",46.78
2025-10-29T19:50:47-04:00,38.0,ModeFlight.Ready,75,1.2,-8300.0,-300.0,8305.42,-4,81,-89,-99,-8,12,"['black', 'black']",46.79
2025-10-29T19:50:48-04:00,38.5,ModeFlight.Ready,75,1.2,600.0,-2800.0,2863.564,-3,75,-89,-95,-8,21,"['black', 'black']",46.79
2025-10-29T19:50:48-04:00,39.0,ModeFlight.Ready,75,35.6,11800.0,6800.0,13619.104,-3,75,-89,-95,-4,49,"['black', 'black']",46.79
2025-10-29T19:50:49-04:00,39.5,ModeFlight.Ready,75,35.6,12200.0,6800.0,13967.104,2,55,-80,-76,0,56,"['black', 'black']",46.79
2025-10-29T19:50:49-04:00,40.0,ModeFlight.Ready,75,9.4,12200.0,6800.0,13967.104,3,54,-80,-76,0,61,"['black', 'black']",46.79
2025-10-29T19:50:50-04:00,40.5,ModeFlight.Ready,75,32.1,11700.0,4400.0,12500.0,14,-38,-96,41,18,17,"['black', 'black']",46.79
2025-10-29T19:50:50-04:00,41.015,ModeFlight.Ready,75,32.1,11700.0,4400.0,12500.0,13,-80,-106,88,5,0,"['black', 'black']",46.79
2025-10-29T19:50:51-04:00,41.5,ModeFlight.Ready,75,32.9,11700.0,4400.0,12500.0,2,-81,-123,95,13,1,"['black', 'black']",46.79
2025-10-29T19:50:51-04:00,42.0,ModeFlight.Ready,75,39.7,11700.0,4400.0,12500.0,3,-81,-125,95,2,-8,"['black', 'black']",46.83
2025-10-29T19:50:52-04:00,42.5,ModeFlight.Ready,75,6.4,-30100.0,6800.0,30858.548,3,-86,-175,85,-1,21,"['black', 'black']",46.83
2025-10-29T19:50:52-04:00,43.0,ModeFlight.Ready,75,6.4,-30100.0,6800.0,30858.548,3,-81,-76,80,-18,-84,"['black', 'black']",46.83
2025-10-29T19:50:53-04:00,43.5,ModeFlight.Ready,75,6.2,-30100.0,6800.0,30858.548,-11,-143,66,13,2,-107,"['black', 'black']",46.83
2025-10-29T19:50:53-04:00,44.0,ModeFlight.Ready,75,6.2,-30100.0,6800.0,30858.548,-6,-167,75,6,1,-102,"['black', 'black']",46.83
2025-10-29T19:50:54-04:00,44.5,ModeFlight.Ready,75,6.2,-400.0,-1200.0,1264.911,0,-166,81,9,-1,-103,"['black', 'black']",46.85
2025-10-29T19:50:54-04:00,45.0,ModeFlight.Ready,75,5.5,-600.0,-1800.0,1897.367,1,-167,88,6,4,-103,"['black', 'black']",46.85
2025-10-29T19:50:55-04:00,45.5,ModeFlight.Ready,75,5.5,-600.0,-1800.0,1897.367,1,-139,71,52,-28,-85,"['black', 'black']",46.85
2025-10-29T19:50:55-04:00,46.0,ModeFlight.Ready,75,11.6,18500.0,17900.0,25742.183,0,-134,71,61,-24,-85,"['black', 'black']",46.86
2025-10-29T19:50:56-04:00,46.5,ModeFlight.Ready,75,11.6,18500.0,17900.0,25742.183,0,-134,71,-3,-25,-105,"['black', 'black']",46.86
2025-10-29T19:50:56-04:00,47.0,ModeFlight.Ready,75,11.6,-23000.0,15200.0,27568.823,-13,-169,73,15,-40,-80,"['black', 'black']",46.89
2025-10-29T19:50:57-04:00,47.5,ModeFlight.Ready,75,11.6,600.0,16300.0,16311.039,-14,-168,73,15,-40,-80,"['black', 'black']",46.89
2025-10-29T19:50:57-04:00,48.0,ModeFlight.Ready,75,24.3,-500.0,16300.0,16307.667,-14,-168,67,-38,-94,-36,"['black', 'black']",46.89
2025-10-29T19:50:58-04:00,48.5,ModeFlight.Ready,75,24.3,-500.0,16300.0,16307.667,-76,-170,57,-61,-4,-67,"['black', 'black']",46.89
2025-10-29T19:50:58-04:00,49.0,ModeFlight.Ready,75,24.3,-22000.0,51800.0,56278.237,-51,-169,57,-61,-19,54,"['black', 'black']",46.9
2025-10-29T19:50:59-04:00,49.5,ModeFlight.Ready,75,24.3,-15800.0,-7900.0,17664.937,8,-27,9,40,2,90,"['black', 'black']",46.91
2025-10-29T19:50:59-04:00,50.0,ModeFlight.Ready,75,4.4,-10000.0,8600.0,13189.39,3,-59,-19,76,1,91,"['black', 'black']",46.91
2025-10-29T19:51:00-04:00,50.5,ModeFlight.Ready,75,4.4,80300.0,8600.0,80759.21,3,-61,-21,61,-7,91,"['black', 'black']",46.92
2025-10-29T19:51:00-04:00,51.0,ModeFlight.Ready,75,2.3,7500.0,-27100.0,28118.677,3,-61,-21,61,-7,91,"['black', 'black']",46.91
2025-10-29T19:51:01-04:00,51.5,ModeFlight.Ready,75,2.3,74900.0,-25300.0,79057.574,3,-61,-21,-104,16,-42,"['black', 'black']",46.91
2025-10-29T19:51:01-04:00,52.0,ModeFlight.Ready,75,999.9,10100.0,-8200.0,13009.612,-47,-11,60,-107,-5,-20,"['black', 'black']",46.91
2025-10-29T19:51:02-04:00,52.5,ModeFlight.Ready,75,999.9,10100.0,-8200.0,13009.612,-11,57,120,-101,-26,-22,"['black', 'black']",46.91
2025-10-29T19:51:02-04:00,53.0,ModeFlight.Ready,75,999.9,-28200.0,17500.0,33188.703,-3,68,120,-101,-26,-22,"['black', 'black']",46.93
2025-10-29T19:51:03-04:00,53.5,ModeFlight.Ready,75,23.0,25500.0,-15700.0,29945.617,-3,68,120,-63,15,-71,"['black', 'black']",46.93
2025-10-29T19:51:03-04:00,54.0,ModeFlight.Ready,75,23.0,25500.0,-15700.0,29945.617,-10,45,87,-83,-27,-40,"['black', 'black']",46.93
2025-10-29T19:51:04-04:00,54.5,ModeFlight.Ready,75,23.0,25500.0,-15700.0,29945.617,-12,46,-122,-107,-9,38,"['black', 'black']",46.93
2025-10-29T19:51:04-04:00,55.0,ModeFlight.Ready,75,45.6,8200.0,10700.0,13480.727,-15,48,-122,-107,-9,85,"['black', 'black']",46.97
2025-10-29T19:51:05-04:00,55.5,ModeFlight.Ready,75,45.6,8200.0,10700.0,13480.727,5,29,-66,-70,46,60,"['black', 'black']",46.97
2025-10-29T19:51:05-04:00,56.0,ModeFlight.Ready,75,45.6,8200.0,12600.0,15033.296,41,66,31,-77,30,-63,"['black', 'black']",46.97
2025-10-29T19:51:06-04:00,56.5,ModeFlight.Ready,75,45.6,-15700.0,12600.0,20130.822,40,66,31,-49,19,-84,"['black', 'black']",46.97
2025-10-29T19:51:06-04:00,57.0,ModeFlight.Ready,75,150.5,-15700.0,12600.0,20130.822,4,34,40,-35,45,-90,"['black', 'black']",46.97
2025-10-29T19:51:07-04:00,57.5,ModeFlight.Ready,75,150.5,-4200.0,-3500.0,5467.175,19,22,40,-34,-27,-98,"['black', 'black']",46.97
2025-10-29T19:51:07-04:00,58.015,ModeFlight.Ready,75,132.0,-25600.0,-11600.0,28105.515,0,22,40,-34,-27,-98,"['black', 'black']",47.0
2025-10-29T19:51:08-04:00,58.5,ModeFlight.Ready,75,128.7,24500.0,5600.0,25131.852,0,22,40,-34,-27,-103,"['black', 'black']",47.0
2025-10-29T19:51:08-04:00,59.0,ModeFlight.Ready,75,17.6,24500.0,5600.0,25131.852,20,-17,58,10,6,-98,"['black', 'black']",47.0
2025-10-29T19:51:09-04:00,59.5,ModeFlight.Ready,75,17.6,24500.0,5600.0,25131.852,-5,5,67,-26,-25,-95,"['black', 'black']",47.0
2025-10-29T19:51:09-04:00,60.0,ModeFlight.Ready,75,17.6,24500.0,5600.0,25131.852,-27,5,84,-57,-3,-15,"['black', 'black']",47.01
2025-10-29T19:51:10-04:00,60.5,ModeFlight.Ready,75,17.6,104500.0,-50200.0,115932.265,-28,5,84,-57,-3,110,"['black', 'black']",47.01
2025-10-29T19:51:10-04:00,61.0,ModeFlight.Ready,75,3.2,68400.0,36500.0,77529.414,-15,-11,-34,-15,-13,110,"['black', 'black']",47.01
2025-10-29T19:51:11-04:00,61.5,ModeFlight.Ready,75,3.2,-46300.0,36500.0,58957.103,-15,-11,-34,-15,-13,110,"['black', 'black']",47.02
2025-10-29T19:51:11-04:00,62.0,ModeFlight.Ready,75,3.2,-46300.0,36500.0,58957.103,-15,-11,-34,-15,0,98,"['black', 'black']",47.02
2025-10-29T19:51:12-04:00,62.5,ModeFlight.Ready,75,3.2,-100.0,5800.0,5800.862,0,0,-34,-1,0,98,"['black', 'black']",47.02
2025-10-29T19:51:12-04:00,63.0,ModeFlight.Ready,75,3.2,-100.0,5800.0,5800.862,0,19,-12,-2,48,78,"['black', 'black']",47.02
2025-10-29T19:51:13-04:00,63.5,ModeFlight.Ready,75,3.2,-100.0,5800.0,5800.862,47,28,-3,-46,82,-33,"['black', 'black']",47.06
2025-10-29T19:51:13-04:00,64.015,ModeFlight.Ready,75,3.2,-100.0,5800.0,5800.862,68,32,12,-47,67,-61,"['black', 'black']",47.06
2025-10-29T19:51:14-04:00,64.5,ModeFlight.Ready,75,-100.0,28900.0,-120800.0,124208.897,58,20,-6,-38,68,-61,"['black', 'black']",47.11
2025-10-29T19:51:14-04:00,65.0,ModeFlight.Ready,75,-100.0,28900.0,-120800.0,124208.897,58,20,-6,-38,68,-61,"['black', 'black']",47.15
2025-10-29T19:51:15-04:00,65.5,ModeFlight.Ready,75,-100.0,-1400.0,31700.0,31730.9,11,-3,-29,24,15,135,"['black', 'black']",47.17
2025-10-29T19:51:15-04:00,66.0,ModeFlight.Ready,75,5.9,-1400.0,10900.0,10989.54,9,-4,-33,10,7,95,"['black', 'black']",47.17
2025-10-29T19:51:16-04:00,66.5,ModeFlight.Ready,75,5.9,-5800.0,10900.0,12347.064,2,-4,-30,-1,7,97,"['black', 'black']",47.17
2025-10-29T19:51:16-04:00,67.0,ModeFlight.Ready,75,5.9,600.0,7400.0,7424.284,5,0,-29,0,12,98,"['black', 'black']",47.17
2025-10-29T19:51:17-04:00,67.5,ModeFlight.Ready,75,14.1,-200.0,-1900.0,1910.497,5,0,-29,20,0,73,"['black', 'black']",47.17
2025-10-29T19:51:17-04:00,68.0,ModeFlight.Ready,75,14.1,-200.0,-1900.0,1910.497,1,-3,-100,13,-29,105,"['black', 'black']",47.17
2025-10-29T19:51:18-04:00,68.5,ModeFlight.Ready,75,14.1,-200.0,3800.0,3805.26,-11,-8,-122,-3,-11,86,"['black', 'black']",47.17
2025-10-29T19:51:18-04:00,69.0,ModeFlight.Ready,75,14.1,-68400.0,52700.0,86347.264,-11,-8,-122,-3,-28,97,"['black', 'black']",47.17
2025-10-29T19:51:19-04:00,69.5,ModeFlight.Ready,75,14.1,-68400.0,-300.0,68400.658,-12,3,-73,0,-20,92,"['black', 'black']",47.17
2025-10-29T19:51:19-04:00,70.0,ModeFlight.Ready,75,14.1,500.0,-300.0,583.095,-8,1,-76,-4,-7,96,"['black', 'black']",47.17
2025-10-29T19:51:20-04:00,70.5,ModeFlight.Ready,75,14.1,500.0,-300.0,583.095,-8,-1,-99,18,-6,89,"['black', 'black']",47.19
2025-10-29T19:51:20-04:00,71.0,ModeFlight.Ready,75,14.1,0.0,36100.0,36100.0,-8,-1,-99,18,-6,98,"['black', 'black']",47.18
2025-10-29T19:51:21-04:00,71.5,ModeFlight.Ready,75,14.1,0.0,-19200.0,19200.0,0,0,-109,1,9,102,"['black', 'black']",47.18
2025-10-29T19:51:21-04:00,72.0,ModeFlight.Ready,75,14.1,0.0,-19200.0,19200.0,0,0,-119,-8,4,110,"['black', 'black']",47.18
2025-10-29T19:51:22-04:00,72.5,ModeFlight.Ready,75,14.1,0.0,-19200.0,19200.0,-1,0,-119,-8,4,109,"['black', 'black']",47.18
2025-10-29T19:51:22-04:00,73.0,ModeFlight.Ready,75,14.1,0.0,-19200.0,19200.0,0,-1,-119,-7,-8,109,"['black', 'black']",47.17
2025-10-29T19:51:23-04:00,73.5,ModeFlight.Ready,75,14.1,0.0,4500.0,4500.0,0,-1,-119,-7,-8,109,"['black', 'black']",47.17
2025-10-29T19:51:23-04:00,74.0,ModeFlight.Ready,75,13.5,1200.0,5700.0,5824.946,0,0,-131,-6,-2,97,"['black', 'black']",47.17
2025-10-29T19:51:24-04:00,74.5,ModeFlight.Ready,75,13.5,1200.0,5700.0,5824.946,0,0,-131,-6,0,96,"['black', 'black']",47.17
2025-10-29T19:51:24-04:00,75.0,ModeFlight.Ready,75,13.5,1200.0,5700.0,5824.946,0,1,-129,-2,-5,81,"['black', 'black']",47.17
2025-10-29T19:51:25-04:00,75.515,ModeFlight.Ready,75,13.5,1200.0,5700.0,5824.946,-1,0,-120,-5,3,98,"['black', 'black']",47.17
2025-10-29T19:51:25-04:00,76.0,ModeFlight.Ready,75,13.5,1200.0,5700.0,5824.946,0,0,-119,0,-1,98,"['black', 'black']",47.17
2025-10-29T19:51:26-04:00,76.515,ModeFlight.Ready,75,2.1,1200.0,5700.0,5824.946,0,0,-119,0,-2,98,"['black', 'black']",47.17
2025-10-29T19:51:26-04:00,77.0,ModeFlight.Ready,75,2.1,1200.0,5700.0,5824.946,0,0,-119,0,-1,98,"['black', 'black']",47.17
2025-10-29T19:51:27-04:00,77.5,ModeFlight.Ready,75,2.1,1200.0,5700.0,5824.946,0,0,-119,0,-1,97,"['black', 'black']",47.17
2025-10-29T19:51:27-04:00,78.0,ModeFlight.Ready,75,2.1,1200.0,-68400.0,68410.526,0,0,-119,0,0,97,"['black', 'black']",47.17
2025-10-29T19:51:28-04:00,78.5,ModeFlight.Ready,75,-100.0,-400.0,-54300.0,54301.473,0,0,-119,0,0,98,"['black', 'black']",47.17
2025-10-29T19:51:28-04:00,79.0,ModeFlight.Ready,75,-100.0,-400.0,-54300.0,54301.473,0,0,-119,0,0,97,"['white', 'white']",47.23
2025-10-29T19:51:29-04:00,79.5,ModeFlight.Ready,75,-100.0,105100.0,-64600.0,123366.0,0,0,-119,0,0,98,"['white', 'white']",47.23
2025-10-29T19:51:29-04:00,80.0,ModeFlight.Ready,75,-100.0,105100.0,-64600.0,123366.0,0,0,-119,0,0,98,"['white', 'white']",47.23
2025-10-29T19:51:30-04:00,80.515,ModeFlight.Ready,75,-100.0,600.0,-1800.0,1897.367,0,0,-119,0,0,97,"['white', 'white']",47.23
2025-10-29T19:51:30-04:00,81.0,ModeFlight.Ready,75,-100.0,600.0,-1800.0,1897.367,0,0,-119,0,0,97,"['white', 'white']",47.23
2025-10-29T19:51:31-04:00,81.5,ModeFlight.Ready,75,-100.0,600.0,-1800.0,1897.367,0,0,-119,0,0,97,"['white', 'white']",47.23
2025-10-29T19:51:31-04:00,82.0,ModeFlight.Ready,75,-100.0,600.0,-1800.0,1897.367,0,0,-119,0,13,87,"['white', 'white']",47.23
2025-10-29T19:51:32-04:00,82.5,ModeFlight.Ready,75,-100.0,-29700.0,-62700.0,69378.527,0,0,-119,1,0,98,"['white', 'white']",47.23
2025-10-29T19:51:32-04:00,83.0,ModeFlight.Ready,75,-100.0,-29700.0,-68400.0,74569.766,0,0,-119,0,0,98,"['white', 'white']",47.23
2025-10-29T19:51:33-04:00,83.5,ModeFlight.Ready,75,-100.0,-500.0,-83700.0,83701.493,0,0,-119,0,0,98,"['white', 'white']",47.23
2025-10-29T19:51:33-04:00,84.0,ModeFlight.Ready,75,-100.0,-500.0,-83700.0,83701.493,0,0,-119,0,0,98,"['white', 'white']",47.23
2025-10-29T19:51:34-04:00,84.5,ModeFlight.Ready,75,-100.0,28100.0,-53900.0,60785.031,0,0,-119,0,0,98,"['white', 'white']",47.23
2025-10-29T19:51:34-04:00,85.0,ModeFlight.Ready,75,-100.0,28100.0,-53900.0,60785.031,0,0,-119,0,0,97,"['white', 'white']",47.23
2025-10-29T19:51:35-04:00,85.5,ModeFlight.Ready,75,-100.0,28100.0,-53900.0,60785.031,0,0,-119,0,0,97,"['white', 'white']",47.23
2025-10-29T19:51:35-04:00,86.0,ModeFlight.Ready,75,-100.0,28100.0,-53900.0,60785.031,0,8,-113,-14,7,83,"['black', 'black']",47.23
2025-10-29T19:51:36-04:00,86.5,ModeFlight.Ready,75,-100.0,-1100.0,1700.0,2024.846,-5,8,-113,-14,7,113,"['red', 'red']",47.52
2025-10-29T19:51:36-04:00,87.0,ModeFlight.Ready,75,-100.0,-600.0,-7600.0,7623.647,0,0,-112,-8,-11,113,"['red', 'red']",47.52
2025-10-29T19:51:37-04:00,87.5,ModeFlight.Ready,75,-100.0,600.0,-51800.0,51803.475,0,0,-112,0,0,98,"['red', 'red']",47.55
2025-10-29T19:51:37-04:00,88.0,ModeFlight.Ready,75,-100.0,1000.0,8500.0,8558.621,0,0,-112,0,0,97,"['red', 'red']",47.55
2025-10-29T19:51:38-04:00,88.5,ModeFlight.Ready,75,-100.0,1200.0,9200.0,9277.931,0,0,-112,0,0,97,"['red', 'red']",47.55
2025-10-29T19:51:38-04:00,89.0,ModeFlight.Ready,75,-100.0,0.0,9200.0,9200.0,0,0,-112,0,0,98,"['red', 'red']",47.55
2025-10-29T19:51:39-04:00,89.5,ModeFlight.Ready,75,-100.0,0.0,9200.0,9200.0,0,0,-112,0,0,98,"['red', 'red']",47.55
2025-10-29T19:51:39-04:00,90.0,ModeFlight.Ready,75,-100.0,0.0,-48400.0,48400.0,0,0,-116,-17,14,129,"['red', 'red']",47.55
2025-10-29T19:51:40-04:00,90.5,ModeFlight.Ready,75,-100.0,-400.0,68400.0,68401.17,6,-9,-118,-13,40,54,"['black', 'black']",47.55
2025-10-29T19:51:40-04:00,91.0,ModeFlight.Ready,75,-100.0,-68400.0,68400.0,96732.208,7,-8,-118,-4,3,87,"['black', 'black']",47.55
2025-10-29T19:51:41-04:00,91.5,ModeFlight.Ready,75,-100.0,-68400.0,68400.0,96732.208,1,0,-116,-4,3,87,"['black', 'black']",47.63
2025-10-29T19:51:41-04:00,92.015,ModeFlight.Ready,75,-100.0,-68400.0,-2500.0,68445.672,1,0,-116,-4,1,98,"['black', 'black']",47.63
2025-10-29T19:51:42-04:00,92.5,ModeFlight.Ready,75,-100.0,100.0,5100.0,5100.98,0,0,-117,0,1,98,"['black', 'black']",47.63
2025-10-29T19:51:42-04:00,93.0,ModeFlight.Ready,75,-100.0,0.0,68400.0,68400.0,0,0,-117,0,1,98,"['black', 'black']",47.64
2025-10-29T19:51:43-04:00,93.5,ModeFlight.Ready,75,-100.0,-900.0,32500.0,32512.459,0,0,-117,0,0,97,"['black', 'black']",47.64
2025-10-29T19:51:43-04:00,94.0,ModeFlight.Ready,75,-100.0,-400.0,-900.0,984.886,0,0,-117,0,0,97,"['purple', 'purple']",47.64
2025-10-29T19:51:44-04:00,94.5,ModeFlight.Ready,75,-100.0,2200.0,-12000.0,12200.0,0,0,-117,0,0,98,"['purple', 'purple']",47.65
2025-10-29T19:51:44-04:00,95.015,ModeFlight.Ready,75,-100.0,600.0,-54600.0,54603.297,0,0,-117,0,0,98,"['purple', 'purple']",47.65
2025-10-29T19:51:45-04:00,95.5,ModeFlight.Ready,75,-100.0,600.0,-54600.0,54603.297,0,9,-122,-14,5,94,"['purple', 'purple']",47.65
2025-10-29T19:51:45-04:00,96.015,ModeFlight.Ready,75,-100.0,600.0,-54600.0,54603.297,0,0,-127,4,0,99,"['purple', 'purple']",47.67
2025-10-29T19:51:46-04:00,96.5,ModeFlight.Ready,75,-100.0,600.0,-54600.0,54603.297,0,0,-127,4,0,98,"['purple', 'purple']",47.67
2025-10-29T19:51:46-04:00,97.0,ModeFlight.Ready,75,-100.0,600.0,-4900.0,4936.598,0,0,-128,0,0,97,"['purple', 'purple']",47.67
2025-10-29T19:51:47-04:00,97.5,ModeFlight.Ready,75,-100.0,600.0,2700.0,2765.863,0,0,-128,0,0,98,"['purple', 'purple']",47.67
2025-10-29T19:51:47-04:00,98.0,ModeFlight.Ready,75,-100.0,8200.0,136800.0,137045.54,1,9,-126,5,17,75,"['purple', 'purple']",47.67
2025-10-29T19:51:48-04:00,98.5,ModeFlight.Ready,75,-100.0,8200.0,8700.0,11955.334,2,0,-114,1,3,100,"['purple', 'purple']",47.67
2025-10-29T19:51:48-04:00,99.0,ModeFlight.Ready,75,-100.0,200.0,8700.0,8702.299,0,1,-113,0,0,98,"['purple', 'purple']",47.67
2025-10-29T19:51:49-04:00,99.5,ModeFlight.Ready,75,-100.0,-1000.0,5900.0,5984.146,0,1,-113,0,0,98,"['blue', 'blue']",47.68
2025-10-29T19:51:49-04:00,100.0,ModeFlight.Ready,75,-100.0,-500.0,16400.0,16407.62,0,0,-113,0,0,98,"['blue', 'blue']",47.69
2025-10-29T19:51:50-04:00,100.5,ModeFlight.Ready,75,-100.0,-500.0,16400.0,16407.62,0,0,-113,0,0,97,"['blue', 'blue']",47.69
2025-10-29T19:51:50-04:00,101.0,ModeFlight.Ready,75,-100.0,-500.0,-1300.0,1392.839,0,0,-113,0,0,98,"['blue', 'blue']",47.69
2025-10-29T19:51:51-04:00,101.5,ModeFlight.Ready,75,-100.0,400.0,-1300.0,1360.147,0,0,-113,0,0,97,"['blue', 'blue']",47.7
2025-10-29T19:51:51-04:00,102.0,ModeFlight.Ready,75,-100.0,400.0,-1300.0,1360.147,0,0,-113,0,0,98,"['blue', 'blue']",47.7
2025-10-29T19:51:52-04:00,102.5,ModeFlight.Ready,75,-100.0,600.0,-27700.0,27706.497,0,0,-113,0,0,97,"['blue', 'blue']",47.7
2025-10-29T19:51:52-04:00,103.0,ModeFlight.Ready,75,-100.0,600.0,-27700.0,27706.497,0,0,-113,0,0,97,"['blue', 'blue']",47.71
2025-10-29T19:51:53-04:00,103.5,ModeFlight.Ready,75,-100.0,100.0,-2800.0,2801.785,0,0,-113,0,0,97,"['blue', 'blue']",47.71
2025-10-29T19:51:53-04:00,104.015,ModeFlight.Ready,75,-100.0,-100.0,2400.0,2402.082,0,0,-113,0,0,97,"['blue', 'blue']",47.72
2025-10-29T19:51:54-04:00,104.5,ModeFlight.Ready,75,-100.0,-100.0,2400.0,2402.082,0,0,-113,0,0,101,"['black', 'black']",47.72
2025-10-29T19:51:54-04:00,105.0,ModeFlight.Ready,75,-100.0,44600.0,-57000.0,72375.134,4,-1,177,-14,12,99,"['black', 'black']",47.72
2025-10-29T19:51:55-04:00,105.5,ModeFlight.Ready,75,-100.0,44600.0,-57000.0,72375.134,3,0,177,-14,0,95,"['black', 'black']",47.72
2025-10-29T19:51:55-04:00,106.0,ModeFlight.Ready,75,-100.0,-500.0,-68400.0,68401.827,3,1,170,-14,0,95,"['light blue', 'light blue']",47.72
2025-10-29T19:51:56-04:00,106.5,ModeFlight.Ready,75,-100.0,-200.0,3800.0,3805.26,0,0,171,1,0,98,"['light blue', 'light blue']",47.73
2025-10-29T19:51:56-04:00,107.0,ModeFlight.Ready,75,-100.0,-200.0,3800.0,3805.26,0,0,171,0,0,98,"['light blue', 'light blue']",47.73
2025-10-29T19:51:57-04:00,107.515,ModeFlight.Ready,75,-100.0,-200.0,3800.0,3805.26,0,0,171,0,0,97,"['light blue', 'light blue']",47.73
2025-10-29T19:51:57-04:00,108.0,ModeFlight.Ready,75,-100.0,-200.0,-5300.0,5303.772,0,0,171,0,0,97,"['light blue', 'light blue']",47.74
2025-10-29T19:51:58-04:00,108.515,ModeFlight.Ready,75,-100.0,-100.0,-5300.0,5300.943,0,0,171,0,0,98,"['light blue', 'light blue']",47.74
2025-10-29T19:51:58-04:00,109.0,ModeFlight.Ready,75,-100.0,-100.0,-5300.0,5300.943,0,0,171,0,0,98,"['light blue', 'light blue']",47.74
2025-10-29T19:51:59-04:00,109.5,ModeFlight.Ready,75,-100.0,-200.0,1700.0,1711.724,0,0,171,0,1,97,"['light blue', 'light blue']",47.75
2025-10-29T19:51:59-04:00,110.015,ModeFlight.Ready,75,-100.0,-200.0,1700.0,1711.724,0,0,171,4,1,71,"['light blue', 'light blue']",47.75
2025-10-29T19:52:00-04:00,110.5,ModeFlight.Ready,75,-100.0,-200.0,-30400.0,30400.658,-1,5,156,4,1,71,"['light blue', 'light blue']",47.75
2025-10-29T19:52:00-04:00,111.0,ModeFlight.Ready,75,-100.0,-4600.0,3200.0,5603.57,0,0,157,1,2,97,"['light blue', 'light blue']",47.75
2025-10-29T19:52:01-04:00,111.5,ModeFlight.Ready,75,-100.0,100.0,3400.0,3401.47,0,0,157,0,0,98,"['light blue', 'light blue']",47.75
2025-10-29T19:52:01-04:00,112.0,ModeFlight.Ready,75,-100.0,2000.0,3200.0,3773.592,0,0,157,0,0,98,"['yellow', 'yellow']",47.76
2025-10-29T19:52:02-04:00,112.5,ModeFlight.Ready,75,-100.0,0.0,-7500.0,7500.0,0,0,157,0,0,97,"['yellow', 'yellow']",47.76
2025-10-29T19:52:02-04:00,113.0,ModeFlight.Ready,75,-100.0,300.0,16000.0,16002.812,0,0,157,0,0,98,"['yellow', 'yellow']",47.76
2025-10-29T19:52:03-04:00,113.5,ModeFlight.Ready,75,-100.0,0.0,0.0,0.0,0,0,157,0,0,98,"['yellow', 'yellow']",47.75
2025-10-29T19:52:03-04:00,114.0,ModeFlight.Ready,75,-100.0,600.0,-53100.0,53103.39,0,0,157,0,0,98,"['yellow', 'yellow']",47.75
2025-10-29T19:52:04-04:00,114.5,ModeFlight.Ready,75,-100.0,0.0,6100.0,6100.0,0,0,156,0,0,98,"['yellow', 'yellow']",47.75
2025-10-29T19:52:04-04:00,115.0,ModeFlight.Ready,75,-100.0,-300.0,-7100.0,7106.335,0,0,156,0,0,98,"['yellow', 'yellow']",47.76
2025-10-29T19:52:05-04:00,115.515,ModeFlight.Ready,75,-100.0,-400.0,-3600.0,3622.154,0,6,157,-25,-10,98,"['yellow', 'yellow']",47.75
2025-10-29T19:52:05-04:00,116.0,ModeFlight.Ready,75,-100.0,-1000.0,100.0,1004.988,4,7,-165,-14,16,85,"['yellow', 'yellow']",47.75
2025-10-29T19:52:06-04:00,116.5,ModeFlight.Ready,75,-100.0,9100.0,21900.0,23715.396,4,7,-128,-10,-27,104,"['black', 'black']",47.75
2025-10-29T19:52:06-04:00,117.0,ModeFlight.Ready,75,-100.0,-1200.0,7300.0,7397.973,10,-2,-128,-10,-27,101,"['black', 'black']",47.75
2025-10-29T19:52:07-04:00,117.5,ModeFlight.Ready,75,-100.0,-1200.0,7300.0,7397.973,-2,9,-102,-3,20,93,"['black', 'black']",47.75
2025-10-29T19:52:07-04:00,118.0,ModeFlight.Ready,75,-100.0,-1200.0,7300.0,7397.973,1,6,-90,-23,-11,114,"['black', 'black']",47.75
2025-10-29T19:52:08-04:00,118.5,ModeFlight.Ready,75,90.5,8200.0,-3000.0,8731.552,0,4,-97,-27,-12,114,"['black', 'black']",47.75
2025-10-29T19:52:08-04:00,119.0,ModeFlight.Ready,75,93.2,68400.0,68400.0,96732.208,0,2,-159,-1,24,96,"['black', 'black']",47.75
2025-10-29T19:52:09-04:00,119.5,ModeFlight.Ready,75,93.2,-700.0,6700.0,6736.468,13,2,-141,4,26,83,"['black', 'black']",47.72
2025-10-29T19:52:09-04:00,120.0,ModeFlight.Ready,75,93.9,-5800.0,6700.0,8861.715,13,1,-139,5,12,105,"['black', 'black']",47.72
2025-10-29T19:52:10-04:00,120.5,ModeFlight.Ready,75,102.9,-5800.0,6700.0,8861.715,14,0,-139,5,12,105,"['black', 'black']",47.66
2025-10-29T19:52:10-04:00,121.0,ModeFlight.Ready,75,102.9,-5800.0,6700.0,8861.715,14,0,-153,-10,9,104,"['black', 'black']",47.66
2025-10-29T19:52:11-04:00,121.5,ModeFlight.Ready,75,102.9,24000.0,11900.0,26788.244,-4,-6,-146,17,0,79,"['black', 'black']",47.66
2025-10-29T19:52:11-04:00,122.0,ModeFlight.Ready,75,102.9,24000.0,11900.0,26788.244,5,2,-98,-9,-1,109,"['black', 'black']",47.66
2025-10-29T19:52:12-04:00,122.5,ModeFlight.Ready,75,102.9,24000.0,11900.0,26788.244,-6,3,-96,-13,-10,97,"['black', 'black']",47.66
2025-10-29T19:52:12-04:00,123.0,ModeFlight.Ready,75,2.4,24000.0,11900.0,26788.244,0,3,-97,1,-3,97,"['black', 'black']",47.66
2025-10-29T19:52:13-04:00,123.5,ModeFlight.Ready,75,2.1,24000.0,11900.0,26788.244,0,3,-97,-3,-2,98,"['black', 'black']",47.66
2025-10-29T19:52:13-04:00,124.0,ModeFlight.Ready,75,2.2,24000.0,11900.0,26788.244,-1,2,-97,-5,-2,98,"['black', 'black']",47.52
2025-10-29T19:52:14-04:00,124.5,ModeFlight.Ready,75,2.2,24000.0,11900.0,26788.244,-1,2,-97,-4,-2,97,"['black', 'black']",47.52
2025-10-29T19:52:14-04:00,125.0,ModeFlight.Ready,75,2.2,24000.0,11900.0,26788.244,-1,2,-97,0,0,98,"['black', 'black']",47.52
2025-10-29T19:52:15-04:00,125.5,ModeFlight.Ready,75,2.2,24000.0,11900.0,26788.244,-1,0,-97,0,0,97,"['black', 'black']",47.52
2025-10-29T19:52:15-04:00,126.0,ModeFlight.Ready,75,2.2,24000.0,11900.0,26788.244,0,0,-97,0,0,98,"['black', 'black']",47.52
2025-10-29T19:52:16-04:00,126.5,ModeFlight.Ready,75,2.2,24000.0,11900.0,26788.244,0,0,-97,0,0,98,"['red', 'red']",47.52
2025-10-29T19:52:16-04:00,127.0,ModeFlight.Ready,75,-100.0,24000.0,11900.0,26788.244,0,0,-97,0,0,98,"['red', 'red']",47.52
2025-10-29T19:52:17-04:00,127.5,ModeFlight.Ready,75,-100.0,24000.0,-32900.0,40723.58,0,0,-97,0,0,98,"['red', 'red']",47.54
2025-10-29T19:52:17-04:00,128.0,ModeFlight.Ready,75,-100.0,300.0,39100.0,39101.151,0,0,-97,0,0,97,"['red', 'red']",47.56
2025-10-29T19:52:18-04:00,128.5,ModeFlight.Ready,75,-100.0,-100.0,21300.0,21300.235,0,0,-97,0,0,98,"['red', 'red']",47.56
2025-10-29T19:52:18-04:00,129.0,ModeFlight.Ready,75,-100.0,300.0,-48300.0,48300.932,0,0,-97,0,0,98,"['red', 'red']",47.56
2025-10-29T19:52:19-04:00,129.5,ModeFlight.Ready,75,-100.0,300.0,-48300.0,48300.932,0,0,-97,0,0,98,"['red', 'red']",47.56
2025-10-29T19:52:19-04:00,130.0,ModeFlight.Ready,75,-100.0,300.0,-48300.0,48300.932,0,0,-98,-2,-3,106,"['red', 'red']",47.56
2025-10-29T19:52:20-04:00,130.5,ModeFlight.Ready,75,-100.0,300.0,-48300.0,48300.932,0,0,-98,-2,-3,106,"['red', 'red']",47.56
2025-10-29T19:52:20-04:00,131.0,ModeFlight.Ready,75,-100.0,0.0,5400.0,5400.0,0,0,-97,0,0,98,"['red', 'red']",47.56
2025-10-29T19:52:21-04:00,131.5,ModeFlight.Ready,75,-100.0,300.0,27600.0,27601.63,0,0,-97,0,0,98,"['red', 'red']",47.62
2025-10-29T19:52:21-04:00,132.0,ModeFlight.Ready,75,-100.0,300.0,27600.0,27601.63,0,16,-94,-11,-29,73,"['black', 'black']",47.62
2025-10-29T19:52:22-04:00,132.5,ModeFlight.Ready,75,-100.0,8800.0,8400.0,12165.525,-21,16,-94,-11,-29,73,"['black', 'black']",47.64
2025-10-29T19:52:22-04:00,133.0,ModeFlight.Ready,75,-100.0,8800.0,8400.0,12165.525,-34,26,-81,-50,-47,79,"['black', 'black']",47.64
2025-10-29T19:52:23-04:00,133.5,ModeFlight.Ready,75,-100.0,8800.0,8400.0,12165.525,-33,26,-74,-50,-46,80,"['black', 'black']",47.64
2025-10-29T19:52:23-04:00,134.0,ModeFlight.Ready,75,-100.0,8800.0,8400.0,12165.525,-25,27,-74,-53,-39,67,"['black', 'black']",47.64
2025-10-29T19:52:24-04:00,134.5,ModeFlight.Ready,75,-100.0,-2400.0,2700.0,3612.478,-26,33,-74,-54,-39,62,"['black', 'black']",47.67
2025-10-29T19:52:24-04:00,135.0,ModeFlight.Ready,75,-100.0,-2400.0,2700.0,3612.478,-26,35,-77,-64,-50,63,"['black', 'black']",47.67
2025-10-29T19:52:25-04:00,135.5,ModeFlight.Ready,75,-100.0,-2400.0,2700.0,3612.478,-29,38,-94,-39,-52,60,"['black', 'black']",47.67
2025-10-29T19:52:25-04:00,136.0,ModeFlight.Ready,75,29.2,16100.0,20100.0,25753.058,-17,27,-91,-48,-9,87,"['black', 'black']",47.67
2025-10-29T19:52:26-04:00,136.515,ModeFlight.Ready,75,2.5,21800.0,20100.0,29652.15,-16,27,-91,-48,5,98,"['black', 'black']",47.67
2025-10-29T19:52:26-04:00,137.0,ModeFlight.Ready,75,2.5,-800.0,4400.0,4472.136,-9,0,-71,0,16,90,"['black', 'black']",47.58
2025-10-29T19:52:27-04:00,137.5,ModeFlight.Ready,75,2.5,-800.0,20400.0,20415.68,3,0,-74,-8,9,99,"['black', 'black']",47.56
2025-10-29T19:52:27-04:00,138.0,ModeFlight.Ready,75,2.5,100.0,20400.0,20400.245,3,0,-73,-1,-8,93,"['black', 'black']",47.56
2025-10-29T19:52:28-04:00,138.5,ModeFlight.Ready,75,2.1,100.0,20400.0,20400.245,2,-1,-73,2,2,98,"['black', 'black']",47.56
2025-10-29T19:52:28-04:00,139.015,ModeFlight.Ready,75,2.0,100.0,4900.0,4901.02,2,-1,-73,2,3,98,"['black', 'black']",47.56
2025-10-29T19:52:29-04:00,139.5,ModeFlight.Ready,75,2.0,100.0,1000.0,1004.988,2,0,-73,0,0,97,"['black', 'black']",47.56
2025-10-29T19:52:29-04:00,140.0,ModeFlight.Ready,75,2.0,0.0,-5300.0,5300.0,0,0,-73,0,0,98,"['red', 'red']",47.47
2025-10-29T19:52:30-04:00,140.5,ModeFlight.Ready,75,-100.0,-200.0,-5300.0,5303.772,0,0,-73,0,0,98,"['red', 'red']",47.47
2025-10-29T19:52:30-04:00,141.0,ModeFlight.Ready,75,-100.0,-200.0,-5300.0,5303.772,0,0,-73,0,0,98,"['red', 'red']",47.47
2025-10-29T19:52:31-04:00,141.515,ModeFlight.Ready,75,-100.0,-200.0,-5300.0,5303.772,0,0,-73,0,0,98,"['red', 'red']",47.47
2025-10-29T19:52:31-04:00,142.0,ModeFlight.Ready,75,-100.0,-200.0,-15400.0,15401.299,0,0,-73,0,0,98,"['red', 'red']",47.47
2025-10-29T19:52:32-04:00,142.5,ModeFlight.Ready,75,-100.0,200.0,-15400.0,15401.299,0,0,-73,0,0,98,"['red', 'red']",47.47
2025-10-29T19:52:32-04:00,143.0,ModeFlight.Ready,75,-100.0,200.0,24200.0,24200.826,0,0,-73,0,0,98,"['red', 'red']",47.47
2025-10-29T19:52:33-04:00,143.5,ModeFlight.Ready,75,-100.0,200.0,24200.0,24200.826,0,0,-73,0,0,98,"['red', 'red']",47.56
2025-10-29T19:52:33-04:00,144.0,ModeFlight.Ready,75,-100.0,200.0,24200.0,24200.826,0,0,-73,0,0,98,"['red', 'red']",47.56
2025-10-29T19:52:34-04:00,144.5,ModeFlight.Ready,75,-100.0,-200.0,58000.0,58000.345,0,0,-73,-1,-2,96,"['red', 'red']",47.56
2025-10-29T19:52:34-04:00,145.0,ModeFlight.Ready,75,-100.0,-200.0,58000.0,58000.345,0,11,-80,-16,-5,110,"['red', 'red']",47.56
2025-10-29T19:52:35-04:00,145.5,ModeFlight.Ready,75,-100.0,0.0,4600.0,4600.0,2,7,-96,-2,29,107,"['red', 'red']",47.6
2025-10-29T19:52:35-04:00,146.015,ModeFlight.Ready,75,-100.0,0.0,4600.0,4600.0,0,-1,-97,-12,6,104,"['white', 'white']",47.6
2025-10-29T19:52:36-04:00,146.5,ModeFlight.Ready,75,-100.0,-100.0,-4400.0,4401.136,5,-13,-70,7,16,81,"['white', 'white']",47.6
2025-10-29T19:52:36-04:00,147.0,ModeFlight.Ready,75,-100.0,-500.0,-48700.0,48702.567,4,-13,-70,7,16,81,"['white', 'white']",47.62
2025-10-29T19:52:37-04:00,147.5,ModeFlight.Ready,75,-100.0,-500.0,-48700.0,48702.567,4,-13,-70,7,-33,104,"['white', 'white']",47.63
2025-10-29T19:52:37-04:00,148.0,ModeFlight.Ready,75,-100.0,200.0,5200.0,5203.845,-10,-3,-78,10,-5,106,"['white', 'white']",47.63
2025-10-29T19:52:38-04:00,148.515,ModeFlight.Ready,75,-100.0,200.0,5200.0,5203.845,-9,1,-80,-4,-6,106,"['white', 'white']",47.63
2025-10-29T19:52:38-04:00,149.0,ModeFlight.Ready,75,-100.0,200.0,-51600.0,51600.388,-8,17,-93,-35,-42,125,"['white', 'white']",47.59
2025-10-29T19:52:39-04:00,149.5,ModeFlight.Ready,75,85.9,-31400.0,-1800.0,31451.55,-9,52,-83,-60,-41,39,"['white', 'white']",47.59
2025-10-29T19:52:39-04:00,150.0,ModeFlight.Ready,75,69.9,-13800.0,-1800.0,13916.896,-25,52,-83,-60,-41,39,"['white', 'white']",47.59
2025-10-29T19:52:40-04:00,150.5,ModeFlight.Ready,75,66.1,39200.0,-27000.0,47598.739,-23,25,-71,-51,-34,120,"['white', 'white']",47.59
2025-10-29T19:52:40-04:00,151.0,ModeFlight.Ready,75,101.3,1400.0,3300.0,3584.69,-23,25,-71,-51,-34,120,"['white', 'white']",47.59
2025-10-29T19:52:41-04:00,151.5,ModeFlight.Ready,75,101.3,1400.0,45300.0,45321.628,1,29,-72,1,-1,111,"['white', 'white']",47.59
2025-10-29T19:52:41-04:00,152.015,ModeFlight.Ready,75,101.3,-6700.0,-12900.0,14536.162,0,-4,-104,19,-3,79,"['white', 'white']",47.59
2025-10-29T19:52:42-04:00,152.5,ModeFlight.Ready,75,101.3,-47500.0,-12900.0,49220.524,-1,-4,-104,19,28,102,"['white', 'white']",47.59
2025-10-29T19:52:42-04:00,153.0,ModeFlight.Ready,75,101.3,-400.0,-10300.0,10307.764,0,0,-111,0,-1,98,"['white', 'white']",47.44
2025-10-29T19:52:43-04:00,153.5,ModeFlight.Ready,75,101.3,-400.0,-10300.0,10307.764,0,0,-111,0,-22,91,"['white', 'white']",47.44
2025-10-29T19:52:43-04:00,154.0,ModeFlight.Ready,75,101.3,-400.0,-10300.0,10307.764,-9,-5,-112,13,43,114,"['white', 'white']",47.44
2025-10-29T19:52:44-04:00,154.5,ModeFlight.Ready,75,7.2,43900.0,53900.0,69515.61,-5,-13,-123,-52,-102,110,"['white', 'white']",47.39
2025-10-29T19:52:44-04:00,155.0,ModeFlight.Ready,75,7.2,43900.0,53900.0,69515.61,-5,-13,-142,-14,-20,97,"['white', 'white']",47.39
2025-10-29T19:52:45-04:00,155.5,ModeFlight.Ready,75,7.2,43900.0,53900.0,69515.61,-1,-10,-134,98,-71,188,"['white', 'white']",47.39
2025-10-29T19:52:45-04:00,156.0,ModeFlight.Ready,75,16.0,43900.0,53900.0,69515.61,-1,-10,-146,18,-22,99,"['white', 'white']",47.35
2025-10-29T19:52:46-04:00,156.5,ModeFlight.Ready,75,16.0,43900.0,53900.0,69515.61,-6,-16,-137,-5,-4,117,"['white', 'white']",47.35
2025-10-29T19:52:46-04:00,157.0,ModeFlight.Ready,75,16.0,1700.0,200.0,1711.724,5,-15,-129,7,-2,95,"['white', 'white']",47.35
2025-10-29T19:52:47-04:00,157.5,ModeFlight.Ready,75,16.0,1700.0,200.0,1711.724,0,-7,-123,14,0,102,"['white', 'white']",47.32
2025-10-29T19:52:47-04:00,158.015,ModeFlight.Ready,75,16.0,1700.0,200.0,1711.724,0,-7,-122,9,-2,98,"['white', 'white']",47.32
2025-10-29T19:52:48-04:00,158.5,ModeFlight.Ready,75,16.0,1700.0,200.0,1711.724,-2,-7,-122,8,-8,93,"['white', 'white']",47.32
2025-10-29T19:52:48-04:00,159.0,ModeFlight.Ready,75,2.1,1700.0,-1200.0,2080.865,-5,-4,-112,2,0,97,"['white', 'white']",47.32
2025-10-29T19:52:49-04:00,159.5,ModeFlight.Ready,75,2.1,100.0,-17400.0,17400.287,0,0,-112,2,0,97,"['white', 'white']",47.29
2025-10-29T19:52:49-04:00,160.0,ModeFlight.Ready,75,-100.0,0.0,-1900.0,1900.0,0,0,-112,2,0,98,"['white', 'white']",47.29
2025-10-29T19:52:50-04:00,160.5,ModeFlight.Ready,75,-100.0,-40000.0,-68400.0,79237.365,0,0,-112,0,0,98,"['white', 'white']",47.29
2025-10-29T19:52:50-04:00,161.0,ModeFlight.Ready,75,-100.0,300.0,600.0,670.82,0,0,-112,0,0,97,"['white', 'white']",47.28
2025-10-29T19:52:51-04:00,161.5,ModeFlight.Ready,75,-100.0,300.0,600.0,670.82,0,0,-112,0,0,97,"['white', 'white']",47.28
2025-10-29T19:52:51-04:00,162.0,ModeFlight.Ready,75,-100.0,300.0,600.0,670.82,0,0,-112,0,0,97,"['white', 'white']",47.28
2025-10-29T19:52:52-04:00,162.5,ModeFlight.Ready,75,-100.0,-42700.0,-68400.0,80634.05,0,0,-112,0,0,97,"['white', 'white']",47.28
2025-10-29T19:52:52-04:00,163.0,ModeFlight.Ready,75,-100.0,-42700.0,-68400.0,80634.05,0,0,-112,0,0,98,"['white', 'white']",47.28
2025-10-29T19:52:53-04:00,163.5,ModeFlight.Ready,75,-100.0,-55300.0,-46800.0,72445.359,0,0,-112,0,0,98,"['white', 'white']",47.28
2025-10-29T19:52:53-04:00,164.0,ModeFlight.Ready,75,-100.0,500.0,-109200.0,109201.145,0,0,-112,0,0,98,"['white', 'white']",47.28
2025-10-29T19:52:54-04:00,164.5,ModeFlight.Ready,75,-100.0,600.0,-109200.0,109201.648,0,0,-112,0,0,98,"['white', 'white']",47.28
2025-10-29T19:52:54-04:00,165.0,ModeFlight.Ready,75,-100.0,600.0,-109200.0,109201.648,0,0,-112,0,0,98,"['white', 'white']",47.28
2025-10-29T19:52:55-04:00,165.515,ModeFlight.Ready,75,-100.0,-68400.0,-55900.0,88336.685,0,0,-112,0,0,98,"['white', 'white']",47.28
2025-10-29T19:52:55-04:00,166.0,ModeFlight.Ready,75,-100.0,-60200.0,-59500.0,84642.129,0,0,-112,0,0,98,"['white', 'white']",47.45
2025-10-29T19:52:56-04:00,166.5,ModeFlight.Ready,75,-100.0,-60200.0,-59500.0,84642.129,0,0,-112,0,0,98,"['white', 'white']",47.45
2025-10-29T19:52:56-04:00,167.0,ModeFlight.Ready,75,-100.0,-60200.0,-59500.0,84642.129,0,0,-112,0,0,98,"['white', 'white']",47.45
2025-10-29T19:52:57-04:00,167.5,ModeFlight.Ready,75,-100.0,-60200.0,-59500.0,84642.129,0,0,-112,0,0,98,"['white', 'white']",47.45
2025-10-29T19:52:57-04:00,168.0,ModeFlight.Ready,75,-100.0,-60200.0,-59500.0,84642.129,0,0,-112,0,0,98,"['white', 'white']",47.45
2025-10-29T19:52:58-04:00,168.5,ModeFlight.Ready,75,-100.0,-63300.0,-68400.0,93195.762,0,0,-112,0,0,98,"['white', 'white']",47.5
2025-10-29T19:52:58-04:00,169.0,ModeFlight.Ready,75,-100.0,-63300.0,-68400.0,93195.762,0,0,-113,5,-15,85,"['white', 'white']",47.5
2025-10-29T19:52:59-04:00,169.5,ModeFlight.Ready,75,-100.0,-63300.0,-24000.0,67697.046,-7,-4,-112,5,-15,85,"['white', 'white']",47.5
2025-10-29T19:52:59-04:00,170.0,ModeFlight.Ready,75,-100.0,26500.0,43900.0,51278.261,-1,-1,-99,-2,-6,93,"['black', 'black']",47.51
2025-10-29T19:53:00-04:00,170.5,ModeFlight.Ready,75,-100.0,9400.0,43900.0,44895.1,-1,-1,-99,-2,-6,93,"['black', 'black']",47.51
2025-10-29T19:53:00-04:00,171.0,ModeFlight.Ready,75,-100.0,-400.0,35700.0,35702.241,0,0,-99,0,0,98,"['black', 'black']",47.51
2025-10-29T19:53:01-04:00,171.5,ModeFlight.Ready,75,-100.0,600.0,5400.0,5433.231,0,0,-99,0,0,98,"['black', 'black']",47.51
2025-10-29T19:53:01-04:00,172.0,ModeFlight.Ready,75,-100.0,600.0,5400.0,5433.231,0,0,-99,0,0,98,"['black', 'black']",47.56
2025-10-29T19:53:02-04:00,172.5,ModeFlight.Ready,75,-100.0,-100.0,-1300.0,1303.84,0,0,-99,0,0,98,"['black', 'black']",47.56
2025-10-29T19:53:02-04:00,173.0,ModeFlight.Ready,75,-100.0,-100.0,-1300.0,1303.84,0,0,-99,0,0,98,"['black', 'black']",47.56
2025-10-29T19:53:03-04:00,173.5,ModeFlight.Ready,75,-100.0,0.0,3000.0,3000.0,0,0,-99,0,0,98,"['black', 'black']",47.56
