ts_iso,elapsed_s,state,battery_percent,height_cm,flow_vx_cms,flow_vy_cms,speed_cms,angle_roll_deg,angle_pitch_deg,angle_yaw_deg,accel_x,accel_y,accel_z,temp_c
2025-10-29T19:10:17-04:00,0.0,,,-100.0,-100.0,61800.0,61800.081,0,0,71,0,0,98,0
2025-10-29T19:10:18-04:00,0.5,,,-100.0,-100.0,61800.0,61800.081,0,0,71,0,0,98,0
2025-10-29T19:10:18-04:00,1.0,,,-100.0,-100.0,100.0,141.421,0,0,71,0,0,98,39.98
2025-10-29T19:10:19-04:00,1.515,,,-100.0,1200.0,-3400.0,3605.551,0,0,71,0,0,97,39.99
2025-10-29T19:10:19-04:00,2.0,,,-100.0,1200.0,-3400.0,3605.551,0,0,71,0,0,98,39.99
2025-10-29T19:10:20-04:00,2.5,,,-100.0,1200.0,-3400.0,3605.551,0,0,71,0,0,97,39.99
2025-10-29T19:10:20-04:00,3.0,,,-100.0,1200.0,-3400.0,3605.551,0,0,71,0,0,97,39.99
2025-10-29T19:10:21-04:00,3.5,,,2.6,600.0,19200.0,19209.373,0,0,71,0,0,97,40.02
2025-10-29T19:10:21-04:00,4.0,,,2.6,600.0,19200.0,19209.373,0,0,0,-4,6,99,40.02
2025-10-29T19:10:22-04:00,4.5,,,2.6,100.0,18500.0,18500.27,0,0,0,-4,6,99,40.02
2025-10-29T19:10:22-04:00,5.0,,,2.6,100.0,18500.0,18500.27,0,0,0,4,0,96,40.02
2025-10-29T19:10:23-04:00,5.5,,,2.6,100.0,-43100.0,43100.116,0,0,0,3,5,91,40.02
2025-10-29T19:10:23-04:00,6.0,,,2.6,100.0,21400.0,21400.234,0,0,10,9,4,102,39.53
2025-10-29T19:10:24-04:00,6.5,,,16.4,2500.0,7800.0,8190.849,1,0,14,1,7,102,39.5
2025-10-29T19:10:24-04:00,7.0,,,22.2,2500.0,7800.0,8190.849,1,0,40,-4,1,95,39.5
2025-10-29T19:10:25-04:00,7.5,,,22.2,2500.0,7800.0,8190.849,1,0,146,-3,-3,91,39.5
2025-10-29T19:10:25-04:00,8.0,,,22.2,2500.0,7800.0,8190.849,-13,0,147,-13,-2,87,39.5
2025-10-29T19:10:26-04:00,8.5,,,22.2,2500.0,-8800.0,9148.224,0,0,152,-2,4,97,39.5
2025-10-29T19:10:26-04:00,9.0,,,22.2,1400.0,-8800.0,8910.668,0,0,151,0,0,92,39.5
2025-10-29T19:10:27-04:00,9.5,,,22.2,500.0,1200.0,1300.0,-1,0,151,0,0,92,39.43
2025-10-29T19:10:27-04:00,10.0,,,22.2,1800.0,1200.0,2163.331,-1,0,151,0,0,92,39.43
2025-10-29T19:10:28-04:00,10.5,,,22.2,1800.0,-16800.0,16896.153,12,-3,152,-4,8,98,39.43
2025-10-29T19:10:28-04:00,11.0,,,22.2,-1900.0,-16800.0,16907.099,12,-2,152,-4,12,95,39.43
2025-10-29T19:10:29-04:00,11.5,,,22.2,-1900.0,-16800.0,16907.099,1,0,152,-1,10,95,39.38
2025-10-29T19:10:29-04:00,12.0,,,999.9,300.0,-6800.0,6806.614,1,0,151,0,8,86,39.43
2025-10-29T19:10:30-04:00,12.5,,,999.9,-1400.0,-6800.0,6942.622,-4,1,151,2,-4,98,39.45
2025-10-29T19:10:30-04:00,13.0,,,999.9,-1400.0,-6800.0,6942.622,0,0,151,2,0,103,39.49
2025-10-29T19:10:31-04:00,13.5,,,999.9,-1400.0,-6800.0,6942.622,0,0,151,-2,-1,98,39.49
2025-10-29T19:10:31-04:00,14.0,,,15.3,900.0,-300.0,948.683,-9,1,152,-1,1,101,39.49
2025-10-29T19:10:32-04:00,14.5,,,45.1,900.0,-300.0,948.683,-9,0,152,-1,6,83,39.49
2025-10-29T19:10:32-04:00,15.0,,,45.1,0.0,14500.0,14500.0,4,0,152,3,6,83,39.49
2025-10-29T19:10:33-04:00,15.5,,,45.1,-400.0,14500.0,14505.516,1,0,154,3,-7,99,39.49
2025-10-29T19:10:33-04:00,16.0,,,38.5,-400.0,14500.0,14505.516,0,0,153,-3,-11,101,39.49
2025-10-29T19:10:34-04:00,16.5,,,38.5,-400.0,14500.0,14505.516,0,0,153,-3,1,86,39.49
2025-10-29T19:10:34-04:00,17.0,,,38.5,-400.0,14500.0,14505.516,0,0,152,-3,2,107,39.49
2025-10-29T19:10:35-04:00,17.5,,,38.5,2400.0,6800.0,7211.103,1,0,150,-1,0,93,39.49
2025-10-29T19:10:35-04:00,18.015,,,38.5,2400.0,200.0,2408.319,1,0,150,-6,5,102,39.49
2025-10-29T19:10:36-04:00,18.5,,,38.5,4500.0,200.0,4504.442,1,0,150,-4,-3,102,39.49
2025-10-29T19:10:36-04:00,19.0,,,36.6,4500.0,200.0,4504.442,1,0,150,-4,-2,103,39.66
2025-10-29T19:10:37-04:00,19.5,,,36.6,4500.0,200.0,4504.442,0,1,169,-3,13,103,39.66
2025-10-29T19:10:37-04:00,20.0,,,8.6,4500.0,200.0,4504.442,2,0,170,2,-2,108,39.64
2025-10-29T19:10:38-04:00,20.515,,,8.6,4500.0,40400.0,40649.846,5,3,167,2,1,88,39.64
2025-10-29T19:10:38-04:00,21.0,,,8.6,-38000.0,-61300.0,72122.743,5,3,167,3,3,43,39.64
2025-10-29T19:10:39-04:00,21.5,,,8.6,-38000.0,-61300.0,72122.743,1,0,178,1,0,97,39.64
2025-10-29T19:10:39-04:00,22.015,,,-100.0,-38000.0,-61300.0,72122.743,0,-1,177,2,1,98,39.6
2025-10-29T19:10:40-04:00,22.5,,,-100.0,-38000.0,-61300.0,72122.743,0,0,177,1,1,98,39.6
2025-10-29T19:10:40-04:00,23.015,,,-100.0,-38000.0,-61300.0,72122.743,0,0,177,1,1,98,39.77
2025-10-29T19:10:41-04:00,23.5,,,-100.0,-38000.0,-61300.0,72122.743,0,0,177,1,1,98,39.83
2025-10-29T19:10:41-04:00,24.0,,,-100.0,-38000.0,-61300.0,72122.743,0,0,177,0,0,98,39.83
2025-10-29T19:10:42-04:00,24.515,,,-100.0,-38000.0,-61300.0,72122.743,0,0,177,0,0,97,39.83
2025-10-29T19:10:42-04:00,25.0,,,-100.0,-38000.0,-61300.0,72122.743,0,0,177,0,0,98,39.83
2025-10-29T19:10:43-04:00,25.5,,,-100.0,-38000.0,-61300.0,72122.743,0,0,177,0,0,97,39.83
2025-10-29T19:10:43-04:00,26.0,,,-100.0,-38000.0,-61300.0,72122.743,0,0,177,0,0,98,39.83
2025-10-29T19:10:44-04:00,26.5,,,-100.0,-38000.0,-61300.0,72122.743,0,0,177,0,0,98,39.83
2025-10-29T19:10:44-04:00,27.0,,,-100.0,-38000.0,-61300.0,72122.743,0,0,177,0,0,97,40.25
2025-10-29T19:10:45-04:00,27.5,,,-100.0,-38000.0,-61300.0,72122.743,0,0,177,0,0,97,40.25
2025-10-29T19:10:45-04:00,28.0,,,-100.0,-38000.0,-61300.0,72122.743,0,0,177,0,0,97,40.25
2025-10-29T19:10:46-04:00,28.5,,,-100.0,-38000.0,-61300.0,72122.743,0,0,177,0,0,98,40.38
2025-10-29T19:10:46-04:00,29.0,,,-100.0,-38000.0,-61300.0,72122.743,0,0,177,0,0,97,40.38
2025-10-29T19:10:47-04:00,29.5,,,-100.0,-38000.0,-61300.0,72122.743,0,0,177,0,0,98,40.38
2025-10-29T19:10:47-04:00,30.0,,,-100.0,-38000.0,-61300.0,72122.743,0,0,177,0,0,98,40.49
2025-10-29T19:10:48-04:00,30.5,,,-100.0,-38000.0,-61300.0,72122.743,0,0,177,0,0,98,40.49
2025-10-29T19:10:48-04:00,31.0,,,-100.0,-38000.0,-61300.0,72122.743,0,0,177,0,0,98,40.49
2025-10-29T19:10:49-04:00,31.5,,,-100.0,-38000.0,-61300.0,72122.743,0,0,177,0,0,98,40.49
2025-10-29T19:10:49-04:00,32.0,,,-100.0,-38000.0,-61300.0,72122.743,0,0,177,0,0,97,40.59
2025-10-29T19:10:50-04:00,32.5,,,-100.0,-38000.0,-61300.0,72122.743,0,0,177,0,0,98,40.59
2025-10-29T19:10:50-04:00,33.0,,,-100.0,-38000.0,-61300.0,72122.743,0,0,177,0,0,98,40.59
2025-10-29T19:10:51-04:00,33.515,,,-100.0,-38000.0,-61300.0,72122.743,0,0,177,0,0,98,40.59
2025-10-29T19:10:51-04:00,34.015,,,-100.0,-38000.0,-61300.0,72122.743,0,0,177,0,0,97,40.59
2025-10-29T19:10:52-04:00,34.515,,,-100.0,-38000.0,-61300.0,72122.743,0,0,176,0,0,98,40.59
2025-10-29T19:10:52-04:00,35.0,,,-100.0,-38000.0,-61300.0,72122.743,0,0,176,0,0,98,40.59
2025-10-29T19:10:53-04:00,35.5,,,-100.0,-38000.0,-61300.0,72122.743,0,0,176,0,0,97,40.59
2025-10-29T19:10:53-04:00,36.015,,,-100.0,-38000.0,-61300.0,72122.743,0,0,176,0,0,97,40.75
2025-10-29T19:10:54-04:00,36.515,,,-100.0,-38000.0,-61300.0,72122.743,0,0,176,0,0,98,40.75
2025-10-29T19:10:54-04:00,37.0,,,-100.0,-38000.0,-61300.0,72122.743,0,0,176,0,0,97,40.75
2025-10-29T19:10:55-04:00,37.5,,,-100.0,-38000.0,-61300.0,72122.743,0,0,176,0,0,98,40.75
2025-10-29T19:10:55-04:00,38.0,,,-100.0,-38000.0,-61300.0,72122.743,0,0,176,0,0,98,40.75
2025-10-29T19:10:56-04:00,38.5,,,-100.0,-38000.0,-61300.0,72122.743,0,0,176,0,0,98,40.75
2025-10-29T19:10:56-04:00,39.0,,,-100.0,-38000.0,-61300.0,72122.743,0,0,176,12,-5,92,40.75
2025-10-29T19:10:57-04:00,39.5,,,-100.0,-22000.0,36300.0,42446.319,2,4,-156,-11,36,137,40.75
2025-10-29T19:10:57-04:00,40.0,,,-100.0,-30600.0,36300.0,47476.836,3,5,-156,-11,0,63,40.83
2025-10-29T19:10:58-04:00,40.515,,,-100.0,-30600.0,-13000.0,33246.955,5,31,-177,-33,0,63,40.83
2025-10-29T19:10:58-04:00,41.0,,,-100.0,15700.0,-13000.0,20383.572,5,13,-176,-6,6,96,40.83
2025-10-29T19:10:59-04:00,41.5,,,-100.0,15700.0,5800.0,16737.085,3,-2,-178,1,4,96,40.83
2025-10-29T19:10:59-04:00,42.0,,,-100.0,-200.0,-25800.0,25800.775,3,-2,-177,0,1,97,40.83
2025-10-29T19:11:00-04:00,42.5,,,-100.0,-200.0,-25800.0,25800.775,2,0,-177,-2,2,97,40.83
2025-10-29T19:11:00-04:00,43.0,,,-100.0,-500.0,27300.0,27304.578,1,0,-177,-3,2,98,40.83
2025-10-29T19:11:01-04:00,43.5,,,-100.0,-200.0,-68400.0,68400.292,0,0,-177,0,0,98,40.83
2025-10-29T19:11:01-04:00,44.0,,,-100.0,600.0,2700.0,2765.863,0,0,-177,1,0,97,40.83
2025-10-29T19:11:02-04:00,44.5,,,-100.0,600.0,-57300.0,57303.141,0,0,-177,0,0,98,40.82
2025-10-29T19:11:02-04:00,45.0,,,-100.0,600.0,-57300.0,57303.141,0,0,-177,0,0,98,40.82
2025-10-29T19:11:03-04:00,45.5,,,-100.0,600.0,-57300.0,57303.141,0,0,-177,0,0,98,40.84
2025-10-29T19:11:03-04:00,46.0,,,-100.0,600.0,-57300.0,57303.141,0,0,-177,0,0,97,40.84
2025-10-29T19:11:04-04:00,46.5,,,-100.0,600.0,-57300.0,57303.141,0,0,-177,0,0,98,40.84
2025-10-29T19:11:04-04:00,47.0,,,-100.0,600.0,-57300.0,57303.141,0,0,-177,0,0,98,40.87
2025-10-29T19:11:05-04:00,47.5,,,-100.0,600.0,-57300.0,57303.141,0,0,-177,0,0,98,40.87
2025-10-29T19:11:05-04:00,48.0,,,-100.0,600.0,-57300.0,57303.141,0,0,-177,0,0,98,40.89
2025-10-29T19:11:06-04:00,48.5,,,-100.0,100.0,-6200.0,6200.806,0,0,-177,0,0,98,40.89
2025-10-29T19:11:06-04:00,49.0,,,-100.0,0.0,6500.0,6500.0,0,0,-177,0,0,98,40.9
2025-10-29T19:11:07-04:00,49.515,,,-100.0,0.0,6500.0,6500.0,0,0,-177,0,0,98,40.9
2025-10-29T19:11:07-04:00,50.0,,,-100.0,0.0,6500.0,6500.0,0,0,-177,0,0,98,40.9
2025-10-29T19:11:08-04:00,50.5,,,-100.0,0.0,6100.0,6100.0,0,0,-177,0,0,98,40.9
2025-10-29T19:11:08-04:00,51.0,,,-100.0,-700.0,6100.0,6140.033,0,0,-177,0,0,98,40.9
2025-10-29T19:11:09-04:00,51.5,,,-100.0,-700.0,6100.0,6140.033,0,0,-177,0,0,97,40.9
2025-10-29T19:11:09-04:00,52.0,,,-100.0,-700.0,6100.0,6140.033,0,0,-178,0,0,97,40.9
2025-10-29T19:11:10-04:00,52.515,,,-100.0,-700.0,6100.0,6140.033,0,0,-178,0,0,97,40.94
2025-10-29T19:11:10-04:00,53.0,,,-100.0,-700.0,6100.0,6140.033,0,0,-178,0,0,97,40.94
2025-10-29T19:11:11-04:00,53.5,,,-100.0,-700.0,6100.0,6140.033,0,0,-178,0,0,97,40.94
2025-10-29T19:11:11-04:00,54.0,,,-100.0,-700.0,6100.0,6140.033,0,0,-178,0,0,98,40.94
2025-10-29T19:11:12-04:00,54.515,,,-100.0,300.0,-2400.0,2418.677,0,0,-178,0,0,98,40.94
2025-10-29T19:11:12-04:00,55.0,,,-100.0,300.0,-2400.0,2418.677,0,0,-178,0,0,98,40.99
2025-10-29T19:11:13-04:00,55.5,,,-100.0,300.0,-136800.0,136800.329,0,0,-178,0,0,98,40.99
2025-10-29T19:11:13-04:00,56.0,,,-100.0,200.0,-136800.0,136800.146,0,0,-178,0,0,98,41.0
2025-10-29T19:11:14-04:00,56.5,,,-100.0,200.0,-136800.0,136800.146,0,0,-178,0,0,98,41.0
2025-10-29T19:11:14-04:00,57.0,,,-100.0,600.0,49800.0,49803.614,0,0,-178,0,0,98,41.01
2025-10-29T19:11:15-04:00,57.5,,,-100.0,600.0,2700.0,2765.863,0,0,-178,0,0,98,41.01
2025-10-29T19:11:15-04:00,58.0,,,-100.0,-700.0,2700.0,2789.265,0,0,-178,0,0,98,41.01
2025-10-29T19:11:16-04:00,58.5,,,-100.0,-700.0,2700.0,2789.265,0,0,-178,0,0,98,41.01
2025-10-29T19:11:16-04:00,59.0,,,-100.0,-700.0,2700.0,2789.265,0,0,-178,0,0,98,41.01
2025-10-29T19:11:17-04:00,59.5,,,-100.0,-700.0,1400.0,1565.248,0,0,-178,0,0,97,41.01
2025-10-29T19:11:17-04:00,60.0,,,-100.0,-100.0,-1900.0,1902.63,0,0,-178,0,0,98,41.01
2025-10-29T19:11:18-04:00,60.5,,,-100.0,500.0,-1900.0,1964.688,0,0,-178,0,0,97,41.07
2025-10-29T19:11:18-04:00,61.0,,,-100.0,500.0,-1900.0,1964.688,0,0,-178,0,0,97,41.07
2025-10-29T19:11:19-04:00,61.5,,,-100.0,500.0,-1900.0,1964.688,0,0,-178,0,0,98,41.07
2025-10-29T19:11:19-04:00,62.0,,,-100.0,500.0,-1900.0,1964.688,0,0,-178,0,0,98,41.07
2025-10-29T19:11:20-04:00,62.5,,,-100.0,0.0,-59500.0,59500.0,0,0,-178,0,0,98,41.09
2025-10-29T19:11:20-04:00,63.0,,,-100.0,0.0,-15200.0,15200.0,0,0,-178,0,0,98,41.09
2025-10-29T19:11:21-04:00,63.515,,,-100.0,100.0,-15200.0,15200.329,0,0,-178,0,0,98,41.09
2025-10-29T19:11:21-04:00,64.0,,,-100.0,100.0,-15200.0,15200.329,0,0,-178,0,0,98,41.09
2025-10-29T19:11:22-04:00,64.5,,,-100.0,100.0,1600.0,1603.122,0,0,-178,0,0,98,41.09
2025-10-29T19:11:22-04:00,65.015,,,-100.0,0.0,5500.0,5500.0,0,0,-178,0,0,98,41.09
2025-10-29T19:11:23-04:00,65.5,,,-100.0,300.0,-800.0,854.4,0,0,-178,0,0,97,41.09
2025-10-29T19:11:23-04:00,66.0,,,-100.0,300.0,-800.0,854.4,0,0,-178,0,0,97,41.15
2025-10-29T19:11:24-04:00,66.5,,,-100.0,300.0,-800.0,854.4,0,0,-178,0,0,97,41.16
2025-10-29T19:11:24-04:00,67.0,,,-100.0,300.0,-800.0,854.4,0,0,-178,0,0,98,41.16
2025-10-29T19:11:25-04:00,67.515,,,-100.0,300.0,-800.0,854.4,0,0,-178,0,0,98,41.16
2025-10-29T19:11:25-04:00,68.0,,,-100.0,300.0,-800.0,854.4,0,0,-178,0,0,97,41.16
2025-10-29T19:11:26-04:00,68.5,,,-100.0,300.0,-800.0,854.4,0,0,-178,0,0,98,41.18
2025-10-29T19:11:26-04:00,69.0,,,-100.0,300.0,1000.0,1044.031,0,0,-178,0,0,97,41.18
2025-10-29T19:11:27-04:00,69.5,,,-100.0,-200.0,-800.0,824.621,0,0,-178,0,0,98,41.18
2025-10-29T19:11:27-04:00,70.0,,,-100.0,-100.0,2100.0,2102.38,0,0,-178,0,0,97,41.2
2025-10-29T19:11:28-04:00,70.5,,,-100.0,-100.0,2100.0,2102.38,0,0,-178,0,0,98,41.2
2025-10-29T19:11:28-04:00,71.0,,,-100.0,-200.0,47900.0,47900.418,0,0,-178,0,0,98,41.2
2025-10-29T19:11:29-04:00,71.5,,,-100.0,-100.0,10300.0,10300.485,0,0,-178,0,0,98,41.23
2025-10-29T19:11:29-04:00,72.0,,,-100.0,-100.0,10300.0,10300.485,0,0,-178,0,0,97,41.23
2025-10-29T19:11:30-04:00,72.5,,,-100.0,-100.0,10300.0,10300.485,0,0,-178,0,0,98,41.23
2025-10-29T19:11:30-04:00,73.0,,,-100.0,300.0,-1900.0,1923.538,0,0,-178,0,0,98,41.26
2025-10-29T19:11:31-04:00,73.5,,,-100.0,300.0,-1900.0,1923.538,0,0,-178,0,0,97,41.25
2025-10-29T19:11:31-04:00,74.0,,,-100.0,300.0,-1900.0,1923.538,0,0,-178,0,0,98,41.25
2025-10-29T19:11:32-04:00,74.5,,,-100.0,300.0,-1900.0,1923.538,0,0,-178,0,0,97,41.25
2025-10-29T19:11:32-04:00,75.0,,,-100.0,600.0,2300.0,2376.973,0,0,-178,0,0,98,41.28
2025-10-29T19:11:33-04:00,75.5,,,-100.0,600.0,2300.0,2376.973,0,0,-178,0,0,98,41.29
2025-10-29T19:11:33-04:00,76.0,,,-100.0,0.0,-4100.0,4100.0,0,0,0,0,0,97,41.29
2025-10-29T19:11:34-04:00,76.5,,,2.6,0.0,56100.0,56100.0,0,0,0,0,0,97,41.29
2025-10-29T19:11:34-04:00,77.0,,,2.6,200.0,56100.0,56100.357,0,0,0,3,-6,98,41.29
2025-10-29T19:11:35-04:00,77.5,,,2.5,200.0,56100.0,56100.357,0,0,0,7,-1,97,41.03
2025-10-29T19:11:35-04:00,78.0,,,2.5,200.0,56100.0,56100.357,0,0,0,7,-1,97,41.03
2025-10-29T19:11:36-04:00,78.5,,,2.5,200.0,56100.0,56100.357,0,0,0,-12,3,106,40.74
2025-10-29T19:11:36-04:00,79.0,,,2.5,-22500.0,-23400.0,32462.44,-1,1,0,4,2,96,40.74
2025-10-29T19:11:37-04:00,79.5,,,2.5,-22500.0,-23400.0,32462.44,0,0,0,-3,-5,97,40.74
2025-10-29T19:11:37-04:00,80.0,,,2.5,-7700.0,-31200.0,32136.117,0,0,0,-3,-4,98,40.74
2025-10-29T19:11:38-04:00,80.5,,,2.5,-7700.0,-31200.0,32136.117,-1,1,0,3,-5,98,40.74
2025-10-29T19:11:38-04:00,81.0,,,3.1,9400.0,9500.0,13364.505,-1,0,0,-2,-5,98,40.15
2025-10-29T19:11:39-04:00,81.5,,,3.6,9400.0,-5100.0,10694.391,-1,0,0,-2,-5,98,40.02
2025-10-29T19:11:39-04:00,82.0,,,11.5,2400.0,-1500.0,2830.194,-1,0,0,-2,-5,91,39.91
2025-10-29T19:11:40-04:00,82.5,,,11.5,2400.0,-1500.0,2830.194,-1,0,0,6,0,99,39.84
2025-10-29T19:11:40-04:00,83.0,,,11.5,2400.0,-1500.0,2830.194,-1,0,0,-2,-6,92,39.72
2025-10-29T19:11:41-04:00,83.5,,,11.5,2400.0,-800.0,2529.822,-1,0,0,-2,3,96,39.72
2025-10-29T19:11:41-04:00,84.0,,,11.5,-10000.0,-13600.0,16880.758,-1,-1,0,4,-1,103,39.72
2025-10-29T19:11:42-04:00,84.5,,,4.5,-10000.0,-13600.0,16880.758,-2,0,0,3,0,99,39.72
2025-10-29T19:11:42-04:00,85.0,,,4.5,-10000.0,-13600.0,16880.758,-2,1,0,0,-6,99,39.72
2025-10-29T19:11:43-04:00,85.5,,,7.3,12500.0,7700.0,14681.281,-2,1,0,4,-2,104,39.72
2025-10-29T19:11:43-04:00,86.0,,,7.3,12500.0,7700.0,14681.281,-2,0,0,-1,-6,119,39.72
2025-10-29T19:11:44-04:00,86.5,,,7.3,12500.0,7700.0,14681.281,-2,0,3,-6,0,99,39.72
2025-10-29T19:11:44-04:00,87.015,,,7.3,12500.0,7700.0,14681.281,-2,0,3,-6,0,99,39.14
2025-10-29T19:11:45-04:00,87.5,,,7.3,12500.0,5700.0,13738.268,0,2,2,-1,-5,117,39.14
2025-10-29T19:11:45-04:00,88.0,,,7.3,-5900.0,-1800.0,6168.468,0,2,2,-1,-5,117,39.14
2025-10-29T19:11:46-04:00,88.5,,,7.3,100.0,-1800.0,1802.776,0,2,2,-1,-5,89,39.14
2025-10-29T19:11:46-04:00,89.0,,,7.3,100.0,700.0,707.107,0,1,1,-4,-7,87,39.14
2025-10-29T19:11:47-04:00,89.5,,,7.3,-1900.0,700.0,2024.846,0,1,1,0,0,92,39.14
2025-10-29T19:11:47-04:00,90.0,,,64.2,-8300.0,-1200.0,8386.298,-1,0,0,0,1,99,39.1
2025-10-29T19:11:48-04:00,90.5,,,64.2,-8300.0,-1200.0,8386.298,-1,5,0,-9,3,102,39.1
2025-10-29T19:11:48-04:00,91.0,,,64.2,-8300.0,-1200.0,8386.298,-2,0,0,-6,-9,101,39.17
2025-10-29T19:11:49-04:00,91.5,,,64.2,-8300.0,-1200.0,8386.298,-1,0,2,-5,-1,96,39.17
2025-10-29T19:11:49-04:00,92.015,,,64.2,9000.0,-2600.0,9368.031,0,0,2,-5,4,97,39.17
2025-10-29T19:11:50-04:00,92.5,,,64.2,9000.0,-2600.0,9368.031,0,0,2,8,-10,99,39.28
2025-10-29T19:11:50-04:00,93.0,,,57.8,-1000.0,500.0,1118.034,0,0,1,0,4,108,39.28
2025-10-29T19:11:51-04:00,93.5,,,57.8,-1400.0,-6500.0,6649.06,4,0,1,-5,-1,108,39.35
2025-10-29T19:11:51-04:00,94.0,,,57.8,-1400.0,-9300.0,9404.786,-5,1,2,0,0,96,39.35
2025-10-29T19:11:52-04:00,94.515,,,57.8,-4900.0,1400.0,5096.077,-5,1,12,2,-6,95,39.35
2025-10-29T19:11:52-04:00,95.0,,,57.8,-1000.0,-1800.0,2059.126,0,1,58,-4,-3,95,39.35
2025-10-29T19:11:53-04:00,95.5,,,57.8,-1000.0,-1800.0,2059.126,0,1,91,-2,-8,95,39.35
2025-10-29T19:11:53-04:00,96.0,,,57.8,-1000.0,-1800.0,2059.126,0,1,147,-1,-2,103,39.35
2025-10-29T19:11:54-04:00,96.5,,,57.8,-14000.0,-1400.0,14069.826,1,1,150,0,-8,101,39.35
2025-10-29T19:11:54-04:00,97.0,,,47.1,-9700.0,-1900.0,9884.331,0,1,-89,-2,-7,99,39.35
2025-10-29T19:11:55-04:00,97.5,,,47.1,-9700.0,-1900.0,9884.331,0,1,-89,0,-9,98,39.35
2025-10-29T19:11:55-04:00,98.0,,,47.1,-9700.0,-1900.0,9884.331,0,0,-69,2,3,98,39.35
2025-10-29T19:11:56-04:00,98.5,,,47.1,-9700.0,-1900.0,9884.331,-1,0,-69,-7,0,102,39.35
2025-10-29T19:11:56-04:00,99.0,,,47.1,-9700.0,-1900.0,9884.331,-1,2,-70,6,-5,96,39.35
2025-10-29T19:11:57-04:00,99.5,,,47.1,-9700.0,-600.0,9718.539,0,1,-71,0,1,95,39.35
2025-10-29T19:11:57-04:00,100.0,,,47.1,-2300.0,-600.0,2376.973,0,1,-71,5,0,101,39.35
2025-10-29T19:11:58-04:00,100.5,,,47.1,-1000.0,-600.0,1166.19,0,1,-71,5,0,101,39.35
2025-10-29T19:11:58-04:00,101.0,,,47.1,4300.0,-900.0,4393.177,0,1,-71,5,0,101,39.35
2025-10-29T19:11:59-04:00,101.5,,,47.1,4300.0,-900.0,4393.177,0,1,-71,5,0,101,39.8
2025-10-29T19:11:59-04:00,102.0,,,49.7,4300.0,-900.0,4393.177,0,1,-71,5,0,101,39.8
2025-10-29T19:12:00-04:00,102.5,,,49.7,4300.0,-900.0,4393.177,0,1,-71,-1,1,102,39.8
2025-10-29T19:12:00-04:00,103.0,,,49.7,4300.0,-400.0,4318.565,0,0,165,-4,-1,98,39.8
2025-10-29T19:12:01-04:00,103.5,,,49.7,-2000.0,-400.0,2039.608,0,0,-171,3,-4,101,39.8
2025-10-29T19:12:01-04:00,104.0,,,49.7,0.0,-5700.0,5700.0,-1,0,-171,3,-4,101,39.8
2025-10-29T19:12:02-04:00,104.5,,,49.7,0.0,-5700.0,5700.0,-1,0,-171,3,1,98,39.8
2025-10-29T19:12:02-04:00,105.015,,,49.7,0.0,-5700.0,5700.0,-1,0,-162,5,3,102,39.8
2025-10-29T19:12:03-04:00,105.5,,,49.7,0.0,-5700.0,5700.0,-1,0,-163,0,13,100,40.03
2025-10-29T19:12:03-04:00,106.0,,,46.9,1500.0,-3100.0,3443.835,-1,0,-163,6,7,100,40.03
2025-10-29T19:12:04-04:00,106.5,,,50.1,1500.0,-1700.0,2267.157,-1,0,-163,6,7,100,40.03
2025-10-29T19:12:04-04:00,107.0,,,53.1,600.0,-1700.0,1802.776,-1,0,-163,6,7,100,40.2
2025-10-29T19:12:05-04:00,107.5,,,53.1,600.0,1600.0,1708.801,-1,0,-163,-2,-8,96,40.2
2025-10-29T19:12:05-04:00,108.0,,,53.1,1000.0,1600.0,1886.796,-1,0,-163,-2,1,99,40.2
2025-10-29T19:12:06-04:00,108.5,,,53.1,1000.0,1600.0,1886.796,-2,0,-164,1,4,100,40.2
2025-10-29T19:12:06-04:00,109.0,,,48.5,1000.0,1600.0,1886.796,-2,0,-164,0,0,97,40.2
2025-10-29T19:12:07-04:00,109.5,,,48.5,1000.0,700.0,1220.656,0,0,-163,0,-3,97,40.2
2025-10-29T19:12:07-04:00,110.0,,,54.5,2400.0,-1100.0,2640.076,0,0,-163,0,9,103,40.41
2025-10-29T19:12:08-04:00,110.5,,,55.8,2400.0,-1100.0,2640.076,-1,0,-163,-6,-10,91,40.4
2025-10-29T19:12:08-04:00,111.0,,,57.9,-700.0,400.0,806.226,-1,0,-164,-3,1,100,40.4
2025-10-29T19:12:09-04:00,111.5,,,57.9,-700.0,-500.0,860.233,0,0,-165,3,-1,96,40.4
2025-10-29T19:12:09-04:00,112.0,,,57.9,-8100.0,-5300.0,9679.876,0,1,-165,-1,1,94,40.48
2025-10-29T19:12:10-04:00,112.5,,,57.9,-8900.0,-5300.0,10358.571,-2,1,-165,-5,-1,100,40.48
2025-10-29T19:12:10-04:00,113.0,,,57.9,-8900.0,-5300.0,10358.571,-1,2,-165,-4,-2,93,40.48
2025-10-29T19:12:11-04:00,113.5,,,57.9,-8900.0,-5300.0,10358.571,-1,2,-165,-4,-2,100,40.5
2025-10-29T19:12:11-04:00,114.0,,,57.9,-8900.0,-5300.0,10358.571,-1,1,-165,-2,2,101,40.53
2025-10-29T19:12:12-04:00,114.5,,,57.9,-8900.0,-5300.0,10358.571,-1,0,-164,-2,2,101,40.53
2025-10-29T19:12:12-04:00,115.0,,,57.9,800.0,-300.0,854.4,-1,0,-164,-2,2,89,40.53
2025-10-29T19:12:13-04:00,115.5,,,57.9,800.0,-300.0,854.4,-2,0,-163,-4,-5,95,40.61
2025-10-29T19:12:13-04:00,116.0,,,57.9,2800.0,1100.0,3008.322,-2,0,-162,-2,-17,96,40.61
2025-10-29T19:12:14-04:00,116.5,,,57.9,2800.0,1100.0,3008.322,-2,1,-165,-7,-2,94,40.61
2025-10-29T19:12:14-04:00,117.0,,,57.9,2800.0,1100.0,3008.322,-2,1,-166,-3,-9,92,40.61
2025-10-29T19:12:15-04:00,117.5,,,57.9,2800.0,-2500.0,3753.665,0,1,165,-9,7,88,40.59
2025-10-29T19:12:15-04:00,118.0,,,57.9,-200.0,-200.0,282.843,0,2,165,-2,-1,99,40.59
2025-10-29T19:12:16-04:00,118.5,,,57.9,-200.0,-200.0,282.843,-1,0,165,0,-2,98,40.59
2025-10-29T19:12:16-04:00,119.0,,,-100.0,-200.0,-200.0,282.843,-1,0,165,0,-2,98,40.59
2025-10-29T19:12:17-04:00,119.515,,,-100.0,-200.0,-200.0,282.843,-1,0,165,0,-2,98,40.83
2025-10-29T19:12:17-04:00,120.0,,,-100.0,300.0,0.0,300.0,0,0,165,0,0,98,40.91
2025-10-29T19:12:18-04:00,120.5,,,-100.0,300.0,0.0,300.0,0,0,165,0,0,97,40.91
2025-10-29T19:12:18-04:00,121.0,,,-100.0,0.0,1700.0,1700.0,0,0,165,0,0,98,40.91
2025-10-29T19:12:19-04:00,121.5,,,-100.0,200.0,51000.0,51000.392,0,0,165,0,0,97,40.91
2025-10-29T19:12:19-04:00,122.0,,,-100.0,200.0,51000.0,51000.392,0,0,165,0,0,98,41.15
2025-10-29T19:12:20-04:00,122.5,,,-100.0,200.0,51000.0,51000.392,0,0,165,0,0,97,41.15
2025-10-29T19:12:20-04:00,123.0,,,-100.0,200.0,51000.0,51000.392,0,0,165,0,0,98,41.15
2025-10-29T19:12:21-04:00,123.5,,,-100.0,100.0,4100.0,4101.219,0,0,165,0,0,97,41.32
2025-10-29T19:12:21-04:00,124.0,,,-100.0,0.0,-4600.0,4600.0,0,0,165,0,0,97,41.38
2025-10-29T19:12:22-04:00,124.5,,,-100.0,0.0,-4600.0,4600.0,0,0,165,0,0,98,41.38
2025-10-29T19:12:22-04:00,125.0,,,-100.0,0.0,-4600.0,4600.0,0,0,165,0,0,98,41.38
